{"type":"FeatureCollection","features":[{"type":"Feature","properties":{"name":"Бизнес-центр «Обводный 14»","address":"Санкт-Петербург, Обводного канала наб., д.14","class":"B"},"geometry":{"type":"Point","coordinates":[30.39191,59.917366]}},{"type":"Feature","properties":{"name":"Бизнес-центр «Литовская 10»","address":"Санкт-Петербург, Литовская ул., д.10","class":"C"},"geometry":{"type":"Point","coordinates":[30.357649,59.979115]}},{"type":"Feature","properties":{"name":"Бизнес-центр «Овентал History»","address":"Санкт-Петербург, Социалистическая ул., д.14","class":"B+"},"geometry":{"type":"Point","coordinates":[30.343042,59.922585]}},{"type":"Feature","properties":{"name":"Бизнес-центр «Менделеевский»","address":"Санкт-Петербург, Менделеевская ул., д.9","class":"C"},"geometry":{"type":"Point","coordinates":[30.366102,59.976319]}},{"type":"Feature","properties":{"name":"Бизнес-центр «Ручьи»","address":"Санкт-Петербург, Руставели ул., д.13","class":"C"},"geometry":{"type":"Point","coordinates":[30.438048,60.002139]}},{"type":"Feature","properties":{"name":"Бизнес-центр «Марвел»","address":"Санкт-Петербург, Седова ул., д.11, к.2","class":"B+"},"geometry":{"type":"Point","coordinates":[30.399672,59.900475]}},{"type":"Feature","properties":{"name":"Бизнес-центр «BRONCOS»","address":"Санкт-Петербург, Индустриальный пр-кт., д.70","class":"B+"},"geometry":{"type":"Point","coordinates":[30.456481,59.970569]}},{"type":"Feature","properties":{"name":"Бизнес-центр «Александровский»","address":"Санкт-Петербург, Херсонская ул., д.39, Литера А","class":"B+"},"geometry":{"type":"Point","coordinates":[30.383385,59.927207]}},{"type":"Feature","properties":{"name":"Бизнес-центр «Лахта-2»","address":"Санкт-Петербург, Оптиков ул., д.4, к.2","class":"B+"},"geometry":{"type":"Point","coordinates":[30.248881,59.995476]}},{"type":"Feature","properties":{"name":"Бизнес-центр «Империал»","address":"Санкт-Петербург, Стачек пр-кт., д.48, к.2","class":"B+"},"geometry":{"type":"Point","coordinates":[30.266254,59.883462]}},{"type":"Feature","properties":{"name":"Бизнес-центр «ECO»","address":"Санкт-Петербург, Стародеревенская ул., д.11, к.2","class":"B"},"geometry":{"type":"Point","coordinates":[30.244632,59.993617]}},{"type":"Feature","properties":{"name":"Бизнес-центр «Авиатор»","address":"Санкт-Петербург, Мебельная ул., д.12, к.1","class":"B+"},"geometry":{"type":"Point","coordinates":[30.241865,59.989927]}},{"type":"Feature","properties":{"name":"Бизнес-центр «Лахта 1»","address":"Санкт-Петербург, Оптиков ул., д.4","class":"B+"},"geometry":{"type":"Point","coordinates":[30.251567,59.992213]}},{"type":"Feature","properties":{"name":"Бизнес-центр «BRONKA SPACE»","address":"Санкт-Петербург, Синопская наб., д.78","class":"B+"},"geometry":{"type":"Point","coordinates":[30.396537,59.940956]}},{"type":"Feature","properties":{"name":"Бизнес-центр «Балтийский Порт»","address":"Санкт-Петербург, Маршала Говорова ул., д.49, Литера А","class":"B+"},"geometry":{"type":"Point","coordinates":[30.290185,59.900917]}},{"type":"Feature","properties":{"name":"Деловой центр «ЭНЕРГО»","address":"Санкт-Петербург, Киевская ул., д.5, к.3","class":"B+"},"geometry":{"type":"Point","coordinates":[30.323387,59.902555]}},{"type":"Feature","properties":{"name":"Бизнес-центр «Пионер»","address":"Санкт-Петербург, Пионерская ул., д.30","class":"B"},"geometry":{"type":"Point","coordinates":[30.283277,59.960043]}},{"type":"Feature","properties":{"name":"Бизнес-центр «Набережная»","address":"Санкт-Петербург, Свердловская наб., д.60, Литера А,Б,B","class":"C"},"geometry":{"type":"Point","coordinates":[30.4087,59.954728]}},{"type":"Feature","properties":{"name":"Бизнес-центр «Офисный дом Колобовых»","address":"Санкт-Петербург, Большой П.С. пр-кт., д.18","class":"B"},"geometry":{"type":"Point","coordinates":[30.294821,59.955394]}},{"type":"Feature","properties":{"name":"Бизнес-парк «Софийская, 14»","address":"Санкт-Петербург, Софийская ул., д.14","class":"B"},"geometry":{"type":"Point","coordinates":[30.39757,59.88115]}},{"type":"Feature","properties":{"name":"Комплекс офисных зданий «Маркс»","address":"Санкт-Петербург, Измайловский пр-кт., д.29, Литера А","class":"B"},"geometry":{"type":"Point","coordinates":[30.306948,59.910379]}},{"type":"Feature","properties":{"name":"Бизнес-центр «Мицар»","address":"Санкт-Петербург, Пулковское ш., д.9, к.3","class":"C"},"geometry":{"type":"Point","coordinates":[30.316955,59.836269]}},{"type":"Feature","properties":{"name":"Бизнес-центр «ПОТАПОВ»","address":"Санкт-Петербург, Революции ш., д.69, к.102","class":"B"},"geometry":{"type":"Point","coordinates":[30.467117,59.96126]}},{"type":"Feature","properties":{"name":"Бизнес-центр «Невский»","address":"Санкт-Петербург, Обуховской Обороны пр-кт., д.37","class":"B"},"geometry":{"type":"Point","coordinates":[30.406463,59.912328]}},{"type":"Feature","properties":{"name":"Бизнес-центр «Эко-Статус»","address":"Санкт-Петербург, Лиговский пр-кт., д.140, Литера А","class":"A"},"geometry":{"type":"Point","coordinates":[30.350741,59.913749]}},{"type":"Feature","properties":{"name":"Бизнес-центр «Магнитка»","address":"Санкт-Петербург, Магнитогорская ул., д.51","class":"B"},"geometry":{"type":"Point","coordinates":[30.432721,59.939969]}},{"type":"Feature","properties":{"name":"Бизнес-центр «Арсенальная 62»","address":"Санкт-Петербург, Арсенальная ул., д.62","class":"C"},"geometry":{"type":"Point","coordinates":[30.369183,59.960228]}},{"type":"Feature","properties":{"name":"Бизнес-центр «Бизнес Депо»","address":"Санкт-Петербург, Большая Разночинная ул., д.14, Литера А","class":"B+"},"geometry":{"type":"Point","coordinates":[30.291587,59.95889]}},{"type":"Feature","properties":{"name":"Бизнес-центр «Таврическая 17»","address":"Санкт-Петербург, Таврическая ул., д.17","class":"C"},"geometry":{"type":"Point","coordinates":[30.378409,59.944039]}},{"type":"Feature","properties":{"name":"Бизнес-центр «River House»","address":"Санкт-Петербург, Академика Павлова ул., д.5","class":"B+"},"geometry":{"type":"Point","coordinates":[30.31647,59.97708]}},{"type":"Feature","properties":{"name":"Бизнес-центр «Румб»","address":"Санкт-Петербург, Зайцева ул., д.41","class":"B"},"geometry":{"type":"Point","coordinates":[30.275363,59.880306]}},{"type":"Feature","properties":{"name":"Бизнес-центр «Кронверк»","address":"Санкт-Петербург, Блохина ул., д.9","class":"B"},"geometry":{"type":"Point","coordinates":[30.302932,59.951443]}},{"type":"Feature","properties":{"name":"Бизнес-центр «City-Grand»","address":"Санкт-Петербург, Петроградская наб., д.18, Литера А","class":"A"},"geometry":{"type":"Point","coordinates":[30.334409,59.959269]}},{"type":"Feature","properties":{"name":"«Red Cadet»","address":"Санкт-Петербург, Красного Курсанта ул., д.25","class":"B+"},"geometry":{"type":"Point","coordinates":[30.281687,59.959661]}},{"type":"Feature","properties":{"name":"Бизнес-центр «Астра»","address":"Санкт-Петербург, Лахтинская ул., д.16, Литера А","class":"B+"},"geometry":{"type":"Point","coordinates":[30.300597,59.96235]}},{"type":"Feature","properties":{"name":"Бизнес-центр «Гайот»","address":"Санкт-Петербург, Профессора Попова ул., д.23","class":"B"},"geometry":{"type":"Point","coordinates":[30.313676,59.971231]}},{"type":"Feature","properties":{"name":"Бизнес-центр «Light House»","address":"Санкт-Петербург, Певческий пер., д.12, Литера А, Б","class":"B+"},"geometry":{"type":"Point","coordinates":[30.325264,59.960134]}},{"type":"Feature","properties":{"name":"Бизнес-центр «Балтийский деловой центр»","address":"Санкт-Петербург, Гаккелевская ул., д.21, Литера А","class":"A"},"geometry":{"type":"Point","coordinates":[30.256301,60.00002]}},{"type":"Feature","properties":{"name":"Деловой центр «Veda House»","address":"Санкт-Петербург, Петроградская наб., д.20, Литера А","class":"A"},"geometry":{"type":"Point","coordinates":[30.334355,59.959958]}},{"type":"Feature","properties":{"name":"Бизнес-центр «Чкаловский 50»","address":"Санкт-Петербург, Чкаловский пр-кт., д.50, к.1, Литера А","class":"B"},"geometry":{"type":"Point","coordinates":[30.299339,59.967358]}},{"type":"Feature","properties":{"name":"Бизнес-центр «Полевая Сабировская 49»","address":"Санкт-Петербург, Полевая Сабировская ул., д.49","class":"B"},"geometry":{"type":"Point","coordinates":[30.27177,59.996452]}},{"type":"Feature","properties":{"name":"Бизнес-центр «Grand Capital»","address":"Санкт-Петербург, Матроса Железняка ул., д.57, Литера А","class":"B"},"geometry":{"type":"Point","coordinates":[30.316245,60.000285]}},{"type":"Feature","properties":{"name":"Бизнес-центр «Гранд-Авто»","address":"Санкт-Петербург, Планерная ул., д.15, Литера Б","class":"C"},"geometry":{"type":"Point","coordinates":[30.234526,59.995476]}},{"type":"Feature","properties":{"name":"Бизнес-центр «Авантаж»","address":"Санкт-Петербург, Белоостровская ул., д.17, к.2, Литера А","class":"B"},"geometry":{"type":"Point","coordinates":[30.321258,59.986821]}},{"type":"Feature","properties":{"name":"Бизнес-центр «Приморский»","address":"Санкт-Петербург, Липовая аллея., д.9, Литера А","class":"B"},"geometry":{"type":"Point","coordinates":[30.257532,59.984463]}},{"type":"Feature","properties":{"name":"Бизнес-центр «Белоостровский»","address":"Санкт-Петербург, Белоостровская ул., д.20, Литера Б","class":"B"},"geometry":{"type":"Point","coordinates":[30.318159,59.986601]}},{"type":"Feature","properties":{"name":"Бизнес-центр «Оптима (Торжковская 5)»","address":"Санкт-Петербург, Торжковская ул., д.5, Литера А","class":"B"},"geometry":{"type":"Point","coordinates":[30.3094,59.987825]}},{"type":"Feature","properties":{"name":"Бизнес-центр «Содружество (Коломяжский, 33)»","address":"Санкт-Петербург, Коломяжский пр-кт., д.33, Литера А","class":"B+"},"geometry":{"type":"Point","coordinates":[30.294865,60.014675]}},{"type":"Feature","properties":{"name":"Бизнес-центр «Лига»","address":"Санкт-Петербург, Лиговский пр-кт., д.70, к.2","class":"B"},"geometry":{"type":"Point","coordinates":[30.358035,59.922102]}},{"type":"Feature","properties":{"name":"Бизнес-центр «Ростра»","address":"Санкт-Петербург, Заневский пр-кт., д.30, к.2","class":"B"},"geometry":{"type":"Point","coordinates":[30.420621,59.931972]}},{"type":"Feature","properties":{"name":"Бизнес-центр «Лиговский 56»","address":"Санкт-Петербург, Лиговский пр-кт., д.56, Литера Г","class":"C"},"geometry":{"type":"Point","coordinates":[30.360056,59.923816]}},{"type":"Feature","properties":{"name":"Бизнес-центр «Моисеенко 22»","address":"Санкт-Петербург, Моисеенко ул., д.22, к.6","class":"C"},"geometry":{"type":"Point","coordinates":[30.389476,59.937946]}},{"type":"Feature","properties":{"name":"Бизнес-центр «Петровский Двор»","address":"Санкт-Петербург, Малый П.С. пр-кт., д.5, к.А","class":"B"},"geometry":{"type":"Point","coordinates":[30.290733,59.954151]}},{"type":"Feature","properties":{"name":"Бизнес-центр «Маркус»","address":"Санкт-Петербург, 10-я В.О. линия., д.59","class":"B"},"geometry":{"type":"Point","coordinates":[30.267395,59.947338]}},{"type":"Feature","properties":{"name":"Бизнес-центр «Ситилинк»","address":"Санкт-Петербург, 17-я В.О. линия., д.4-6","class":"B"},"geometry":{"type":"Point","coordinates":[30.271473,59.93218]}},{"type":"Feature","properties":{"name":"Бизнес-центр «Механобр»","address":"Санкт-Петербург, 22-я В.О. линия., д.2, к.10","class":"C"},"geometry":{"type":"Point","coordinates":[30.266784,59.930439]}},{"type":"Feature","properties":{"name":"Бизнес-центр «Игротехника»","address":"Санкт-Петербург, 16-я В.О. линия., д.7","class":"C"},"geometry":{"type":"Point","coordinates":[30.272488,59.934186]}},{"type":"Feature","properties":{"name":"Бизнес-центр «Рот Фронт»","address":"Санкт-Петербург, Реки Смоленки наб., д.5-7","class":"C"},"geometry":{"type":"Point","coordinates":[30.261376,59.948825]}},{"type":"Feature","properties":{"name":"Бизнес-центр «Средний проспект»","address":"Санкт-Петербург, Средний В.О. пр-кт., д.86","class":"C"},"geometry":{"type":"Point","coordinates":[30.253067,59.934871]}},{"type":"Feature","properties":{"name":"Бизнес-центр «Каменноостровский 40»","address":"Санкт-Петербург, Каменноостровский пр-кт., д.40","class":"B"},"geometry":{"type":"Point","coordinates":[30.310694,59.966255]}},{"type":"Feature","properties":{"name":"Бизнес-центр «М-1 арена»","address":"Санкт-Петербург, Приморский пр-кт., д.80, к.1","class":"B"},"geometry":{"type":"Point","coordinates":[30.188514,59.989]}},{"type":"Feature","properties":{"name":"Бизнес-центр «Седов»","address":"Санкт-Петербург, Седова ул., д.13","class":"C"},"geometry":{"type":"Point","coordinates":[30.405951,59.897808]}},{"type":"Feature","properties":{"name":"Бизнес-центр «Перспектива»","address":"Санкт-Петербург, Обводного канала наб., д.118а, Литера Б","class":"B"},"geometry":{"type":"Point","coordinates":[30.305385,59.902921]}},{"type":"Feature","properties":{"name":"Деловой центр «Экополис»","address":"Санкт-Петербург, Выборгское ш., д.13","class":"B"},"geometry":{"type":"Point","coordinates":[30.314045,60.048584]}},{"type":"Feature","properties":{"name":"Бизнес-центр «Суворовский 65»","address":"Санкт-Петербург, Суворовский пр-кт., д.65","class":"B"},"geometry":{"type":"Point","coordinates":[30.3882,59.944927]}},{"type":"Feature","properties":{"name":"Бизнес-центр «Аэроплаза»","address":"Санкт-Петербург, Стартовая ул., д.8, Литера А","class":"A"},"geometry":{"type":"Point","coordinates":[30.314575,59.807373]}},{"type":"Feature","properties":{"name":"Бизнес-центр «Финляндский»","address":"Санкт-Петербург, Комсомола ул., д.41, Литера А","class":"B"},"geometry":{"type":"Point","coordinates":[30.354532,59.955539]}},{"type":"Feature","properties":{"name":"Бизнес-центр «Медведь»","address":"Санкт-Петербург, Большая Конюшенная ул., д.27","class":"B"},"geometry":{"type":"Point","coordinates":[30.322363,59.936999]}},{"type":"Feature","properties":{"name":"Бизнес-центр «Эриксонъ»","address":"Санкт-Петербург, Большой Сампсониевский пр-кт., д.60","class":"B"},"geometry":{"type":"Point","coordinates":[30.339063,59.974261]}},{"type":"Feature","properties":{"name":"Бизнес-центр «Синопская 54»","address":"Санкт-Петербург, Синопская наб., д.54, Литера А","class":"B"},"geometry":{"type":"Point","coordinates":[30.392315,59.9347]}},{"type":"Feature","properties":{"name":"Бизнес-центр «Московский 115»","address":"Санкт-Петербург, Московский пр-кт., д.115","class":"B"},"geometry":{"type":"Point","coordinates":[30.318653,59.888392]}},{"type":"Feature","properties":{"name":"Бизнес-центр «Конногвардейский»","address":"Санкт-Петербург, Конногвардейский б-р., д.4, Литера А","class":"B"},"geometry":{"type":"Point","coordinates":[30.298171,59.932698]}},{"type":"Feature","properties":{"name":"Бизнес-центр «на Лиговском»","address":"Санкт-Петербург, Воронежская ул., д.96","class":"B"},"geometry":{"type":"Point","coordinates":[30.34589,59.910717]}},{"type":"Feature","properties":{"name":"Бизнес-центр «Русские Самоцветы»","address":"Санкт-Петербург, Карла Фаберже пл., д.8","class":"B+"},"geometry":{"type":"Point","coordinates":[30.43653,59.934515]}},{"type":"Feature","properties":{"name":"Бизнес-центр «Золотая Долина»","address":"Санкт-Петербург, Карла Фаберже пл., д.8, Литера Б","class":"B"},"geometry":{"type":"Point","coordinates":[30.436054,59.935633]}},{"type":"Feature","properties":{"name":"Бизнес-центр «Пирамида»","address":"Санкт-Петербург, Конституции пл., д.3, Литера А","class":"B"},"geometry":{"type":"Point","coordinates":[30.305825,59.8505]}},{"type":"Feature","properties":{"name":"Бизнес-центр «Мегапарк»","address":"Санкт-Петербург, Заставская ул., д.7, Литера А-Ж","class":"B"},"geometry":{"type":"Point","coordinates":[30.335514,59.889187]}},{"type":"Feature","properties":{"name":"Бизнес-центр «Скандинавиан»","address":"Санкт-Петербург, Революции ш., д.69, Литера А","class":"B+"},"geometry":{"type":"Point","coordinates":[30.466543,59.962075]}},{"type":"Feature","properties":{"name":"Бизнес-центр «Альфа Пулковское»","address":"Санкт-Петербург, Пулковское ш., д.19, Литера Е","class":"B"},"geometry":{"type":"Point","coordinates":[30.316398,59.825769]}},{"type":"Feature","properties":{"name":"Бизнес-центр «Корпус»","address":"Санкт-Петербург, Чугунная ул., д.20, Литера З","class":"B"},"geometry":{"type":"Point","coordinates":[30.364117,59.970992]}},{"type":"Feature","properties":{"name":"Бизнес-центр «НРК»","address":"Санкт-Петербург, Калужский пер., д.3","class":"B+"},"geometry":{"type":"Point","coordinates":[30.380107,59.945576]}},{"type":"Feature","properties":{"name":"Бизнес-центр «РАДУГА»","address":"Санкт-Петербург, Кантемировская ул., д.12, Литера А","class":"B"},"geometry":{"type":"Point","coordinates":[30.331139,59.983995]}},{"type":"Feature","properties":{"name":"Бизнес-центр «Шереметев»","address":"Санкт-Петербург, Стачек пр-кт., д.47","class":"C"},"geometry":{"type":"Point","coordinates":[30.258331,59.878432]}},{"type":"Feature","properties":{"name":"Бизнес-центр «Большая монетная 16»","address":"Санкт-Петербург, Большая Монетная ул., д.16","class":"C"},"geometry":{"type":"Point","coordinates":[30.319758,59.962242]}},{"type":"Feature","properties":{"name":"Бизнес-центр «На Монетной»","address":"Санкт-Петербург, Большая Монетная ул., д.16, к.5","class":"B"},"geometry":{"type":"Point","coordinates":[30.321887,59.962597]}},{"type":"Feature","properties":{"name":"Бизнес-центр «Иволга»","address":"Санкт-Петербург, Реки Волковки наб., д.7","class":"B"},"geometry":{"type":"Point","coordinates":[30.364647,59.905782]}},{"type":"Feature","properties":{"name":"Бизнес-центр «ГАП»","address":"Санкт-Петербург, Смолячкова ул., д.19, Литера А","class":"B"},"geometry":{"type":"Point","coordinates":[30.346438,59.970853]}},{"type":"Feature","properties":{"name":"Бизнес-центр «IT Loft Lesnaya»","address":"Санкт-Петербург, Харченко ул., д.13","class":"B"},"geometry":{"type":"Point","coordinates":[30.351612,59.982784]}},{"type":"Feature","properties":{"name":"Бизнес-центр «Квартал»","address":"Санкт-Петербург, Ново-Рыбинская ул., д.19-21","class":"B"},"geometry":{"type":"Point","coordinates":[30.337275,59.902686]}},{"type":"Feature","properties":{"name":"Бизнес-центр «Телрос»","address":"Санкт-Петербург, Менделеевская ул., д.2","class":"C"},"geometry":{"type":"Point","coordinates":[30.351917,59.97337]}},{"type":"Feature","properties":{"name":"Бизнес-центр «ЦКН ЛЗТО»","address":"Санкт-Петербург, Кантемировская ул., д.39","class":"C"},"geometry":{"type":"Point","coordinates":[30.356616,59.985926]}},{"type":"Feature","properties":{"name":"Бизнес-центр «Ракурс»","address":"Санкт-Петербург, Химический пер., д.1, к.2","class":"B"},"geometry":{"type":"Point","coordinates":[30.282145,59.890844]}},{"type":"Feature","properties":{"name":"Бизнес-центр «Лидер»","address":"Санкт-Петербург, Конституции пл., д.7, Литера А","class":"B+"},"geometry":{"type":"Point","coordinates":[30.308259,59.850988]}},{"type":"Feature","properties":{"name":"Бизнес-центр «Лиговский 50»","address":"Санкт-Петербург, Лиговский пр-кт., д.50","class":"B"},"geometry":{"type":"Point","coordinates":[30.363694,59.922603]}},{"type":"Feature","properties":{"name":"Бизнес-центр «Нарвские Ворота»","address":"Санкт-Петербург, Старо-Петергофский пр-кт., д.30","class":"B+"},"geometry":{"type":"Point","coordinates":[30.277789,59.905073]}},{"type":"Feature","properties":{"name":"Бизнес-центр «Вектор»","address":"Санкт-Петербург, Шпалерная ул., д.24","class":"C"},"geometry":{"type":"Point","coordinates":[30.350651,59.949231]}},{"type":"Feature","properties":{"name":"Торгово-офисный комплекс «Шайба»","address":"Санкт-Петербург, Стачек пр-кт., д.66","class":"C"},"geometry":{"type":"Point","coordinates":[30.263038,59.8805]}},{"type":"Feature","properties":{"name":"Бизнес-центр «Заставкая лофт»","address":"Санкт-Петербург, Заставская ул., д.33, Литера ТА","class":"C"},"geometry":{"type":"Point","coordinates":[30.315536,59.890713]}},{"type":"Feature","properties":{"name":"Бизнес-центр «Трефолева 2»","address":"Санкт-Петербург, Трефолева ул., д.2, Литера В","class":"C"},"geometry":{"type":"Point","coordinates":[30.281894,59.887264]}},{"type":"Feature","properties":{"name":"Бизнес-центр «Элкус»","address":"Санкт-Петербург, Благодатная ул., д.10","class":"B+"},"geometry":{"type":"Point","coordinates":[30.307981,59.876174]}},{"type":"Feature","properties":{"name":"«Грибоедова 60»","address":"Санкт-Петербург, Грибоедова канала наб., д.60","class":"B"},"geometry":{"type":"Point","coordinates":[30.314916,59.925931]}},{"type":"Feature","properties":{"name":"Бизнес-центр «12-я линия ВО»","address":"Санкт-Петербург, 12-я В.О. линия., д.13","class":"B"},"geometry":{"type":"Point","coordinates":[30.274267,59.938482]}},{"type":"Feature","properties":{"name":"Бизнес-центр «Сириус»","address":"Санкт-Петербург, Московское ш., д.42, к.2, Литера А","class":"B"},"geometry":{"type":"Point","coordinates":[30.349321,59.830223]}},{"type":"Feature","properties":{"name":"Бизнес-центр «Шагал»","address":"Санкт-Петербург, Зеленков пер., д.7А, Литера З","class":"B"},"geometry":{"type":"Point","coordinates":[30.337491,59.971654]}},{"type":"Feature","properties":{"name":"Бизнес-центр «Московские ворота»","address":"Санкт-Петербург, Митрофаньевская М. ул., д.4","class":"B"},"geometry":{"type":"Point","coordinates":[30.315033,59.896138]}},{"type":"Feature","properties":{"name":"Бизнес-центр «Воронежская 33»","address":"Санкт-Петербург, Воронежская ул., д.33, Литера А","class":"B"},"geometry":{"type":"Point","coordinates":[30.346132,59.913916]}},{"type":"Feature","properties":{"name":"Торгово-офисный комплекс «Меркурий»","address":"Санкт-Петербург, Савушкина ул., д.141, Литера А","class":"B"},"geometry":{"type":"Point","coordinates":[30.20578,59.990899]}},{"type":"Feature","properties":{"name":"Бизнес-центр «Максель»","address":"Санкт-Петербург, Заставская ул., д.3, Литера А","class":"B+"},"geometry":{"type":"Point","coordinates":[30.338065,59.888379]}},{"type":"Feature","properties":{"name":"Бизнес-центр «Стельп»","address":"Санкт-Петербург, Рентгена ул., д.7, Литера А","class":"B"},"geometry":{"type":"Point","coordinates":[30.321438,59.963863]}},{"type":"Feature","properties":{"name":"Бизнес-центр «Лиговский 254»","address":"Санкт-Петербург, Лиговский пр-кт., д.254","class":"B"},"geometry":{"type":"Point","coordinates":[30.335047,59.896043]}},{"type":"Feature","properties":{"name":"Бизнес-центр «Оптима на Cмоленской»","address":"Санкт-Петербург, Смоленская ул., д.9","class":"B"},"geometry":{"type":"Point","coordinates":[30.322237,59.903963]}},{"type":"Feature","properties":{"name":"Бизнес-центр «Гражданский 22»","address":"Санкт-Петербург, Гражданский пр-кт., д.22","class":"B"},"geometry":{"type":"Point","coordinates":[30.387329,60.003975]}},{"type":"Feature","properties":{"name":"Торгово-офисный комплекс «Энергетиков 8»","address":"Санкт-Петербург, Энергетиков пр-кт., д.8, к.1","class":"B+"},"geometry":{"type":"Point","coordinates":[30.434634,59.937851]}},{"type":"Feature","properties":{"name":"Бизнес-центр «Tempo 2»","address":"Санкт-Петербург, Невский пр-кт., д.104, Литера Б","class":"A"},"geometry":{"type":"Point","coordinates":[30.357316,59.933172]}},{"type":"Feature","properties":{"name":"Торгово-офисный комплекс «Беговая 3»","address":"Санкт-Петербург, Беговая ул., д.3","class":"B+"},"geometry":{"type":"Point","coordinates":[30.205546,59.986133]}},{"type":"Feature","properties":{"name":"Бизнес-центр «Анкор»","address":"Санкт-Петербург, Якорная ул., д.7, Литера АД","class":"B+"},"geometry":{"type":"Point","coordinates":[30.42054,59.941682]}},{"type":"Feature","properties":{"name":"Бизнес-центр «Cerean»","address":"Санкт-Петербург, Пархоменко пр-кт., д.10, к.2, Литера А","class":"B"},"geometry":{"type":"Point","coordinates":[30.334724,60.000573]}},{"type":"Feature","properties":{"name":"Бизнес-центр «Мегапарк 2»","address":"Санкт-Петербург, Заставская ул., д.22","class":"B"},"geometry":{"type":"Point","coordinates":[30.326253,59.8886]}},{"type":"Feature","properties":{"name":"Бизнес-центр «Резон»","address":"Санкт-Петербург, Всеволода Вишневского ул., д.12","class":"B"},"geometry":{"type":"Point","coordinates":[30.298872,59.96829]}},{"type":"Feature","properties":{"name":"Бизнес-центр «Лесной 19»","address":"Санкт-Петербург, Лесной пр-кт., д.19","class":"B"},"geometry":{"type":"Point","coordinates":[30.351019,59.966192]}},{"type":"Feature","properties":{"name":"Бизнес-центр «Интеграл»","address":"Санкт-Петербург, Лифляндская ул., д.6, к.6, Литера С","class":"B"},"geometry":{"type":"Point","coordinates":[30.264368,59.905795]}},{"type":"Feature","properties":{"name":"Бизнес-центр «Профит»","address":"Санкт-Петербург, Черной речки наб., д.15","class":"B"},"geometry":{"type":"Point","coordinates":[30.316506,59.984724]}},{"type":"Feature","properties":{"name":"Торгово-офисный комплекс «Ульянка»","address":"Санкт-Петербург, Ветеранов пр-кт., д.101"},"geometry":{"type":"Point","coordinates":[30.204836,59.834135]}},{"type":"Feature","properties":{"name":"Торгово-офисный комплекс «Космос»","address":"Санкт-Петербург, Авиаконструкторов пр-кт., д.5, к.2"},"geometry":{"type":"Point","coordinates":[30.246976,60.011068]}},{"type":"Feature","properties":{"name":"Торгово-офисный комплекс «Рубикон»","address":"Санкт-Петербург, Гражданский пр-кт., д.119"},"geometry":{"type":"Point","coordinates":[30.420657,60.033971]}},{"type":"Feature","properties":{"name":"Торгово-офисный комплекс «Комендант»","address":"Санкт-Петербург, Уточкина ул., д.3, к.2","class":"C"},"geometry":{"type":"Point","coordinates":[30.263694,60.01024]}},{"type":"Feature","properties":{"name":"Деловой центр «Сигнал»","address":"Санкт-Петербург, Ворошилова ул., д.2, к.Р"},"geometry":{"type":"Point","coordinates":[30.440141,59.923112]}},{"type":"Feature","properties":{"name":"Деловой центр «Типография Котлякова»","address":"Санкт-Петербург, Руставели ул., д.13, Литера А","class":"C"},"geometry":{"type":"Point","coordinates":[30.438048,60.002139]}},{"type":"Feature","properties":{"name":"Офисное здание «16-я линия ВО»","address":"Санкт-Петербург, 16-я В.О. линия., д.75, Литера Г"},"geometry":{"type":"Point","coordinates":[30.261781,59.944373]}},{"type":"Feature","properties":{"name":"Бизнес-центр «Стэм»","address":"Санкт-Петербург, Ленинский пр-кт., д.168, к.4","class":"B"},"geometry":{"type":"Point","coordinates":[30.310927,59.853622]}},{"type":"Feature","properties":{"name":"Бизнес-центр «Эврика Маршала Новикова 41»","address":"Санкт-Петербург, Маршала Новикова ул., д.41, к.1, Литера А","class":"B"},"geometry":{"type":"Point","coordinates":[30.275776,60.027211]}},{"type":"Feature","properties":{"name":"Бизнес-центр «Эврика Шлиссельбургский проспект 3-7»","address":"Санкт-Петербург, Шлиссельбургский пр-кт., д.3-7","class":"B"},"geometry":{"type":"Point","coordinates":[30.488947,59.841089]}},{"type":"Feature","properties":{"name":"Торгово-офисный комплекс «Эврика Александровской фермы 29»","address":"Санкт-Петербург, Александровской Фермы пр-кт., д.29, Литера ВГ","class":"C"},"geometry":{"type":"Point","coordinates":[30.427223,59.852795]}},{"type":"Feature","properties":{"name":"Офисно-складской комплекс «Эврика 3-й Рыбацкий проезд 3»","address":"Санкт-Петербург, 3-й Рыбацкий проезд., д.3","class":"C"},"geometry":{"type":"Point","coordinates":[30.496187,59.825366]}},{"type":"Feature","properties":{"name":"Торгово-офисный комплекс «APRIORI»","address":"Санкт-Петербург, Большой П.С. пр-кт., д.58","class":"B+"},"geometry":{"type":"Point","coordinates":[30.303534,59.96107]}},{"type":"Feature","properties":{"name":"Бизнес-центр «Н-49»","address":"Санкт-Петербург, Непокоренных пр-кт., д.49, Литера А","class":"B"},"geometry":{"type":"Point","coordinates":[30.38785,59.994247]}},{"type":"Feature","properties":{"name":"Бизнес-центр «Бестужевский двор»","address":"Санкт-Петербург, Бестужевская ул., д.10","class":"C"},"geometry":{"type":"Point","coordinates":[30.393779,59.987294]}},{"type":"Feature","properties":{"name":"Бизнес-центр «Обводный 24»","address":"Санкт-Петербург, Обводного канала наб., д.24, Литера А","class":"C"},"geometry":{"type":"Point","coordinates":[30.375822,59.913677]}},{"type":"Feature","properties":{"name":"Бизнес-центр «Петроградская 16А»","address":"Санкт-Петербург, Петроградская наб., д.16, Литера А","class":"B"},"geometry":{"type":"Point","coordinates":[30.334158,59.958255]}},{"type":"Feature","properties":{"name":"Бизнес-центр «Вестник»","address":"Санкт-Петербург, Невский пр-кт., д.102, Литера С","class":"A"},"geometry":{"type":"Point","coordinates":[30.357002,59.933307]}},{"type":"Feature","properties":{"name":"Бизнес-центр «Атрио»","address":"Санкт-Петербург, Петроградская наб., д.22","class":"A"},"geometry":{"type":"Point","coordinates":[30.334302,59.960282]}},{"type":"Feature","properties":{"name":"Бизнес-центр «Оскар»","address":"Санкт-Петербург, Реки Фонтанки наб., д.13","class":"A"},"geometry":{"type":"Point","coordinates":[30.342907,59.936499]}},{"type":"Feature","properties":{"name":"Бизнес-центр «Шпалерная 52»","address":"Санкт-Петербург, Шпалерная ул., д.52, Литера Б","class":"C+"},"geometry":{"type":"Point","coordinates":[30.372183,59.94901]}},{"type":"Feature","properties":{"name":"Офисное здание «Арктическая 10»","address":"Санкт-Петербург, Арктическая ул., д.10","class":"B+"},"geometry":{"type":"Point","coordinates":[30.311305,60.027966]}},{"type":"Feature","properties":{"name":"Бизнес-центр «Уткин»","address":"Санкт-Петербург, Уткин пр-кт., д.15","class":"B"},"geometry":{"type":"Point","coordinates":[30.444327,59.938536]}},{"type":"Feature","properties":{"name":"Бизнес-центр «Шаумяна 10»","address":"Санкт-Петербург, Шаумяна пр-кт., д.10, к.1, Литера А","class":"B"},"geometry":{"type":"Point","coordinates":[30.416461,59.935651]}},{"type":"Feature","properties":{"name":"Бизнес-центр «Geneum»","address":"Санкт-Петербург, Невский пр-кт., д.10","class":"A"},"geometry":{"type":"Point","coordinates":[30.315257,59.936927]}},{"type":"Feature","properties":{"name":"Бизнес-центр «Мануфактура»","address":"Санкт-Петербург, Цветочная ул., д.25, Литера А","class":"B"},"geometry":{"type":"Point","coordinates":[30.329505,59.885801]}},{"type":"Feature","properties":{"name":"Бизнес-центр «Партнер»","address":"Санкт-Петербург, Старо-Петергофский пр-кт., д.40, Литера А","class":"B"},"geometry":{"type":"Point","coordinates":[30.27981,59.904423]}},{"type":"Feature","properties":{"name":"Бизнес-центр «Гапсаль»","address":"Санкт-Петербург, Гапсальская ул., д.1, к.2","class":"B"},"geometry":{"type":"Point","coordinates":[30.259705,59.912973]}},{"type":"Feature","properties":{"name":"Бизнес-центр «Миля»","address":"Санкт-Петербург, Канонерский остров., д.3, к.1, Литера Б","class":"A"},"geometry":{"type":"Point","coordinates":[30.208528,59.89362]}},{"type":"Feature","properties":{"name":"Бизнес-центр «Балтика»","address":"Санкт-Петербург, Гапсальская ул., д.5, Литера А","class":"B+"},"geometry":{"type":"Point","coordinates":[30.257217,59.911223]}},{"type":"Feature","properties":{"name":"Бизнес-центр «Алкотел»","address":"Санкт-Петербург, Маршала Говорова ул., д.52","class":"B"},"geometry":{"type":"Point","coordinates":[30.289107,59.901545]}},{"type":"Feature","properties":{"name":"Бизнес-центр «Преображенский»","address":"Санкт-Петербург, 14-я В.О. линия., д.7, Строение А","class":"B+"},"geometry":{"type":"Point","coordinates":[30.274653,59.935205]}},{"type":"Feature","properties":{"name":"Бизнес-центр «Петровский»","address":"Санкт-Петербург, Петровская коса., д.1, к.1","class":"B"},"geometry":{"type":"Point","coordinates":[30.25083,59.96289]}},{"type":"Feature","properties":{"name":"Бизнес-центр «Чапаева 28»","address":"Санкт-Петербург, Чапаева ул., д.28","class":"B"},"geometry":{"type":"Point","coordinates":[30.330636,59.965858]}},{"type":"Feature","properties":{"name":"Бизнес-центр «Адмиралтейский»","address":"Санкт-Петербург, Московский пр-кт., д.22","class":"B"},"geometry":{"type":"Point","coordinates":[30.318365,59.919662]}},{"type":"Feature","properties":{"name":"Бизнес-центр «Каменноостровский 11»","address":"Санкт-Петербург, Каменноостровский пр-кт., д.11, к.2","class":"B+"},"geometry":{"type":"Point","coordinates":[30.320108,59.958886]}},{"type":"Feature","properties":{"name":"Бизнес-центр «Чайковского 29»","address":"Санкт-Петербург, Чайковского ул., д.29, Литера А","class":"A"},"geometry":{"type":"Point","coordinates":[30.352268,59.946311]}},{"type":"Feature","properties":{"name":"Бизнес-центр «Нобель»","address":"Санкт-Петербург, Пироговская наб., д.21","class":"B"},"geometry":{"type":"Point","coordinates":[30.338326,59.965948]}},{"type":"Feature","properties":{"name":"Особняк «XIX Век (19 век)»","address":"Санкт-Петербург, Пироговская наб., д.17","class":"B"},"geometry":{"type":"Point","coordinates":[30.338353,59.963886]}},{"type":"Feature","properties":{"name":"Бизнес-центр «Завод им.Козицкого 6-я В.О. линия,д. 59»","address":"Санкт-Петербург, 6-я В.О. линия., д.59, к.1Л","class":"C"},"geometry":{"type":"Point","coordinates":[30.272749,59.948559]}},{"type":"Feature","properties":{"name":"Бизнес-центр «Завод им.Козицкого 7-я линия, д. 82, ( корпус 24)»","address":"Санкт-Петербург, 7-я В.О. линия., д.82, к.24","class":"C"},"geometry":{"type":"Point","coordinates":[30.271132,59.947973]}},{"type":"Feature","properties":{"name":"Бизнес-центр «Призма»","address":"Санкт-Петербург, Воронежская ул., д.5","class":"B+"},"geometry":{"type":"Point","coordinates":[30.348576,59.91789]}},{"type":"Feature","properties":{"name":"Бизнес-центр «Фарватер»","address":"Санкт-Петербург, Введенский канал., д.7","class":"B"},"geometry":{"type":"Point","coordinates":[30.328579,59.918029]}},{"type":"Feature","properties":{"name":"Бизнес-центр «Урал-Плаза»","address":"Санкт-Петербург, Уральская ул., д.19, к.10","class":"C"},"geometry":{"type":"Point","coordinates":[30.258753,59.954597]}},{"type":"Feature","properties":{"name":"Бизнес-центр «Монблан»","address":"Санкт-Петербург, Большой Сампсониевский пр-кт., д.4-6","class":"A"},"geometry":{"type":"Point","coordinates":[30.343914,59.957354]}},{"type":"Feature","properties":{"name":"Бизнес-центр «Нобелевская дорога»","address":"Санкт-Петербург, Самойловой ул., д.5","class":"C"},"geometry":{"type":"Point","coordinates":[30.374672,59.902149]}},{"type":"Feature","properties":{"name":"Бизнес-центр «Текстиль»","address":"Санкт-Петербург, Московский пр-кт., д.107, к.4","class":"B"},"geometry":{"type":"Point","coordinates":[30.317225,59.890695]}},{"type":"Feature","properties":{"name":"Бизнес-центр «Индустриальный парк Джеймс Бек»","address":"Санкт-Петербург, Петроградская наб., д.34, к.В,Г,Д,М","class":"C"},"geometry":{"type":"Point","coordinates":[30.331301,59.962881]}},{"type":"Feature","properties":{"name":"Бизнес-центр «Чкаловский»","address":"Санкт-Петербург, Зеленина Б. ул., д.8","class":"B+"},"geometry":{"type":"Point","coordinates":[30.294371,59.959814]}},{"type":"Feature","properties":{"name":"Бизнес-центр «Биржа»","address":"Санкт-Петербург, 26-я В.О. линия., д.15, к.2, Литера A","class":"B+"},"geometry":{"type":"Point","coordinates":[30.256786,59.933072]}},{"type":"Feature","properties":{"name":"Бизнес-центр «Транслайн»","address":"Санкт-Петербург, Якорная ул., д.14, к.3, Литера Д","class":"B+"},"geometry":{"type":"Point","coordinates":[30.434275,59.943566]}},{"type":"Feature","properties":{"name":"Бизнес-центр «Acqualina»","address":"Санкт-Петербург, Двинская ул., д.3","class":"A"},"geometry":{"type":"Point","coordinates":[30.255977,59.909391]}},{"type":"Feature","properties":{"name":"Бизнес-центр «Гипрометиз»","address":"Санкт-Петербург, Каменноостровский пр-кт., д.15","class":"C"},"geometry":{"type":"Point","coordinates":[30.317575,59.960323]}},{"type":"Feature","properties":{"name":"Бизнес-центр «Любавич»","address":"Санкт-Петербург, Сампсониевский Б. пр-кт., д.60, Литера У","class":"B"},"geometry":{"type":"Point","coordinates":[30.336547,59.973861]}},{"type":"Feature","properties":{"name":"Бизнес-центр «Primium»","address":"Санкт-Петербург, Приморский пр-кт., д.54, к.1","class":"A"},"geometry":{"type":"Point","coordinates":[30.234436,59.983864]}},{"type":"Feature","properties":{"name":"Бизнес-центр «Невский 100»","address":"Санкт-Петербург, Невский пр-кт., д.100","class":"B"},"geometry":{"type":"Point","coordinates":[30.355628,59.932031]}},{"type":"Feature","properties":{"name":"Бизнес-центр «Рылеева 14»","address":"Санкт-Петербург, Рылеева ул., д.14","class":"B"},"geometry":{"type":"Point","coordinates":[30.358817,59.94257]}},{"type":"Feature","properties":{"name":"Бизнес-центр «ЦНИТА»","address":"Санкт-Петербург, Бухарестская ул., д.1","class":"B"},"geometry":{"type":"Point","coordinates":[30.356867,59.892446]}},{"type":"Feature","properties":{"name":"Бизнес-центр «Каскад»","address":"Санкт-Петербург, Мельничная ул., д.18, Литера А","class":"B"},"geometry":{"type":"Point","coordinates":[30.387823,59.910442]}},{"type":"Feature","properties":{"name":"Бизнес-центр «Воронцовъ»","address":"Санкт-Петербург, Барочная ул., к.1, Литера А","class":"B+"},"geometry":{"type":"Point","coordinates":[30.286251,59.964557]}},{"type":"Feature","properties":{"name":"Бизнес-центр «Циолковский»","address":"Санкт-Петербург, Обводного канала наб., д.193","class":"B"},"geometry":{"type":"Point","coordinates":[30.286888,59.909576]}},{"type":"Feature","properties":{"name":"Офисно-жилой комплекс «Аптекарская набережная 6»","address":"Санкт-Петербург, Аптекарская наб., д.6","class":"B"},"geometry":{"type":"Point","coordinates":[30.327546,59.972811]}},{"type":"Feature","properties":{"name":"Бизнес-центр «IMAX Group»","address":"Санкт-Петербург, Кубинская ул., д.80","class":"B"},"geometry":{"type":"Point","coordinates":[30.29986,59.841631]}},{"type":"Feature","properties":{"name":"Бизнес-центр «Маяк»","address":"Санкт-Петербург, Московский пр-кт., д.89-91","class":"B"},"geometry":{"type":"Point","coordinates":[30.318572,59.895976]}},{"type":"Feature","properties":{"name":"Бизнес-центр «Дом советов»","address":"Санкт-Петербург, Московский пр-кт., д.212","class":"B"},"geometry":{"type":"Point","coordinates":[30.32725,59.852118]}},{"type":"Feature","properties":{"name":"Бизнес-центр «Сенная 4»","address":"Санкт-Петербург, Ефимова ул., д.1/4","class":"B"},"geometry":{"type":"Point","coordinates":[30.319425,59.926206]}},{"type":"Feature","properties":{"name":"Офисно-складской комплекс «Радуга на 6 линии ВО»","address":"Санкт-Петербург, 6-я В.О. линия., д.63","class":"C"},"geometry":{"type":"Point","coordinates":[30.271985,59.949231]}},{"type":"Feature","properties":{"name":"Бизнес-центр «Бекар»","address":"Санкт-Петербург, Большой Сампсониевский пр-кт., д.61, к.2, Литера А","class":"B"},"geometry":{"type":"Point","coordinates":[30.340464,59.973176]}},{"type":"Feature","properties":{"name":"Бизнес-центр «Альфа»","address":"Санкт-Петербург, Заставская ул., д.33, Литера Ж","class":"C"},"geometry":{"type":"Point","coordinates":[30.315823,59.888857]}},{"type":"Feature","properties":{"name":"Деловой центр «Дакар Цветочная»","address":"Санкт-Петербург, Цветочная ул., д.16, к.3, Литера Б","class":"B"},"geometry":{"type":"Point","coordinates":[30.330214,59.886]}},{"type":"Feature","properties":{"name":"Бизнес-центр «Киевская, 6»","address":"Санкт-Петербург, Киевская ул., д.6","class":"B"},"geometry":{"type":"Point","coordinates":[30.322201,59.902898]}},{"type":"Feature","properties":{"name":"Бизнес-центр «Оцелот»","address":"Санкт-Петербург, Коли Томчака ул., д.28, Литера В","class":"C"},"geometry":{"type":"Point","coordinates":[30.325507,59.885733]}},{"type":"Feature","properties":{"name":"Бизнес-центр «Автовская 15»","address":"Санкт-Петербург, Автовская ул., д.15","class":"C"},"geometry":{"type":"Point","coordinates":[30.268635,59.867462]}},{"type":"Feature","properties":{"name":"Бизнес-центр «Владимирский 15»","address":"Санкт-Петербург, Владимирский пр-кт., д.15","class":"C"},"geometry":{"type":"Point","coordinates":[30.347309,59.929276]}},{"type":"Feature","properties":{"name":"Офисное здание «Дакар Кржижановского»","address":"Санкт-Петербург, Кржижановского ул., д.15"},"geometry":{"type":"Point","coordinates":[30.481158,59.929623]}},{"type":"Feature","properties":{"name":"Бизнес-центр «Стокгольм»","address":"Санкт-Петербург, Выборгская наб., д.45, Литера Е","class":"B"},"geometry":{"type":"Point","coordinates":[30.334832,59.97273]}},{"type":"Feature","properties":{"name":"Бизнес-центр «Лукойл Сити»","address":"Санкт-Петербург, Аптекарская наб., д.8, Литера А","class":"A"},"geometry":{"type":"Point","coordinates":[30.326504,59.973744]}},{"type":"Feature","properties":{"name":"Бизнес-центр «Дом Швеции»","address":"Санкт-Петербург, Малая Конюшенная ул., д.1-3, Литера А","class":"A"},"geometry":{"type":"Point","coordinates":[30.325696,59.938685]}},{"type":"Feature","properties":{"name":"Бизнес-центр «Линкор»","address":"Санкт-Петербург, Петроградская наб., д.36, Литера А","class":"A"},"geometry":{"type":"Point","coordinates":[30.334176,59.962994]}},{"type":"Feature","properties":{"name":"Бизнес-центр «Преображенский на Радищева 39»","address":"Санкт-Петербург, Радищева ул., д.39, Литера Д","class":"B+"},"geometry":{"type":"Point","coordinates":[30.364153,59.94262]}},{"type":"Feature","properties":{"name":"Комплекс офисных зданий «Комплект Плюс»","address":"Санкт-Петербург, Марата ул., д.82","class":"B"},"geometry":{"type":"Point","coordinates":[30.341254,59.919969]}},{"type":"Feature","properties":{"name":"«Радищева 39 В»","address":"Санкт-Петербург, Радищева ул., д.39, Литера B","class":"B"},"geometry":{"type":"Point","coordinates":[30.364108,59.942011]}},{"type":"Feature","properties":{"name":"Бизнес-центр «Магнус»","address":"Санкт-Петербург, 9-я В.О. линия., д.34, Литера A","class":"B+"},"geometry":{"type":"Point","coordinates":[30.277097,59.941087]}},{"type":"Feature","properties":{"name":"Бизнес-центр «Таврический на Шпалерной»","address":"Санкт-Петербург, Шпалерная ул., д.51","class":"C"},"geometry":{"type":"Point","coordinates":[30.384401,59.948429]}},{"type":"Feature","properties":{"name":"Бизнес-центр «Адмиралтейский дом»","address":"Санкт-Петербург, Конногвардейский б-р., д.3","class":"B+"},"geometry":{"type":"Point","coordinates":[30.301387,59.934578]}},{"type":"Feature","properties":{"name":"Бизнес-центр «Кип хаус»","address":"Санкт-Петербург, Витебская ул., д.13","class":"B"},"geometry":{"type":"Point","coordinates":[30.27998,59.920965]}},{"type":"Feature","properties":{"name":"Бизнес-центр «Apollo»","address":"Санкт-Петербург, Добролюбова пр-кт., д.8","class":"A"},"geometry":{"type":"Point","coordinates":[30.303022,59.949177]}},{"type":"Feature","properties":{"name":"Бизнес-центр «Reforma Левашовский»","address":"Санкт-Петербург, Левашовский пр-кт., д.15, Литера A","class":"B"},"geometry":{"type":"Point","coordinates":[30.284706,59.966746]}},{"type":"Feature","properties":{"name":"Бизнес-центр «Style»","address":"Санкт-Петербург, Левашовский пр-кт., д.13","class":"B"},"geometry":{"type":"Point","coordinates":[30.286772,59.966768]}},{"type":"Feature","properties":{"name":"Бизнес-центр «Пушкарская 20»","address":"Санкт-Петербург, Пушкарская Б. ул., д.20","class":"C"},"geometry":{"type":"Point","coordinates":[30.300848,59.957827]}},{"type":"Feature","properties":{"name":"Бизнес-центр «Добролюбов»","address":"Санкт-Петербург, Добролюбова пр-кт., д.11","class":"B+"},"geometry":{"type":"Point","coordinates":[30.301342,59.949875]}},{"type":"Feature","properties":{"name":"Бизнес-центр «Wall Street»","address":"Санкт-Петербург, Советская 2-я ул., д.27/2","class":"B"},"geometry":{"type":"Point","coordinates":[30.372246,59.930219]}},{"type":"Feature","properties":{"name":"Торгово-офисный комплекс «Клондайк»","address":"Санкт-Петербург, 2-й Муринский пр-кт., д.38","class":"C"},"geometry":{"type":"Point","coordinates":[30.359877,59.999467]}},{"type":"Feature","properties":{"name":"Бизнес-центр «Ренессанс»","address":"Санкт-Петербург, Энгельса пр-кт., д.71, Литера А","class":"B"},"geometry":{"type":"Point","coordinates":[30.321321,60.021415]}},{"type":"Feature","properties":{"name":"Бизнес-центр «Суворовский (5-я Советская)»","address":"Санкт-Петербург, 5-я Советская ул., д.44/12","class":"B"},"geometry":{"type":"Point","coordinates":[30.375633,59.932739]}},{"type":"Feature","properties":{"name":"Многофункциональный комплекс «Аквамарин»","address":"Санкт-Петербург, Ивана Черных ул., д.31-33","class":"B"},"geometry":{"type":"Point","coordinates":[30.28528,59.902253]}},{"type":"Feature","properties":{"name":"Деловой центр «Преображенский двор»","address":"Санкт-Петербург, Литейный пр-кт., д.26","class":"A"},"geometry":{"type":"Point","coordinates":[30.349483,59.94188]}},{"type":"Feature","properties":{"name":"Бизнес-центр «Невский плаза»","address":"Санкт-Петербург, Невский пр-кт., д.55, Литера А","class":"A"},"geometry":{"type":"Point","coordinates":[30.350292,59.931999]}},{"type":"Feature","properties":{"name":"Бизнес-центр «Ассамблея»","address":"Санкт-Петербург, Маяковского ул., д.12","class":"A"},"geometry":{"type":"Point","coordinates":[30.353885,59.934529]}},{"type":"Feature","properties":{"name":"Деловой центр «Партнерство»","address":"Санкт-Петербург, 7-я Красноармейская ул., д.25","class":"C"},"geometry":{"type":"Point","coordinates":[30.308906,59.911764]}},{"type":"Feature","properties":{"name":"Бизнес-центр «Луч»","address":"Санкт-Петербург, Металлистов пр-кт., д.7","class":"B+"},"geometry":{"type":"Point","coordinates":[30.422085,59.950682]}},{"type":"Feature","properties":{"name":"Бизнес-центр «Dominant Классик»","address":"Санкт-Петербург, Магнитогорская ул., д.30, Литера А","class":"B"},"geometry":{"type":"Point","coordinates":[30.422049,59.939546]}},{"type":"Feature","properties":{"name":"Бизнес-центр «Охта-Хаус»","address":"Санкт-Петербург, Индустриальный пр-кт., д.44, к.2","class":"B"},"geometry":{"type":"Point","coordinates":[30.461216,59.959435]}},{"type":"Feature","properties":{"name":"«Dominant Модерн»","address":"Санкт-Петербург, Магнитогорская ул., д.30, Литера Б","class":"B+"},"geometry":{"type":"Point","coordinates":[30.425678,59.939735]}},{"type":"Feature","properties":{"name":"Бизнес-центр «Алва»","address":"Санкт-Петербург, Апраксин пер., д.8","class":"B"},"geometry":{"type":"Point","coordinates":[30.325902,59.928681]}},{"type":"Feature","properties":{"name":"«Заставская 32»","address":"Санкт-Петербург, Заставская ул., д.32, Литера А","class":"A"},"geometry":{"type":"Point","coordinates":[30.32248,59.887711]}},{"type":"Feature","properties":{"name":"Бизнес-центр «На Октябрьской набережной»","address":"Санкт-Петербург, Октябрьская наб., д.10, к.1, Строение 1","class":"B+"},"geometry":{"type":"Point","coordinates":[30.422444,59.912021]}},{"type":"Feature","properties":{"name":"Бизнес-центр «Leader Tower»","address":"Санкт-Петербург, Конституции пл., д.3, к.2","class":"A"},"geometry":{"type":"Point","coordinates":[30.304738,59.850454]}},{"type":"Feature","properties":{"name":"Торгово-офисный комплекс «Наличная 44»","address":"Санкт-Петербург, Наличная ул., д.44, к.1","class":"B+"},"geometry":{"type":"Point","coordinates":[30.232846,59.952069]}},{"type":"Feature","properties":{"name":"Бизнес-центр «Дестион»","address":"Санкт-Петербург, Цветочная ул., д.25, Литера Ж","class":"B"},"geometry":{"type":"Point","coordinates":[30.329388,59.885255]}},{"type":"Feature","properties":{"name":"Бизнес-центр «Андрин»","address":"Санкт-Петербург, Лиговский пр-кт., д.123","class":"B+"},"geometry":{"type":"Point","coordinates":[30.35225,59.918471]}},{"type":"Feature","properties":{"name":"Офисно-гостиничный комплекс «Литейный двор»","address":"Санкт-Петербург, Чайковского ул., д.17","class":"B"},"geometry":{"type":"Point","coordinates":[30.347543,59.946324]}},{"type":"Feature","properties":{"name":"Бизнес-центр «Невский Центр»","address":"Санкт-Петербург, Невский пр-кт., д.114-116, Литера А","class":"A"},"geometry":{"type":"Point","coordinates":[30.359149,59.931941]}},{"type":"Feature","properties":{"name":"Бизнес-центр «Обводный 28»","address":"Санкт-Петербург, Обводного канала наб., д.28, Строение 1","class":"B+"},"geometry":{"type":"Point","coordinates":[30.369569,59.91314]}},{"type":"Feature","properties":{"name":"Деловой центр «Ника»","address":"Санкт-Петербург, Масляный пер., д.7","class":"B"},"geometry":{"type":"Point","coordinates":[30.32681,59.907699]}},{"type":"Feature","properties":{"name":"Бизнес-центр «Петровский форт»","address":"Санкт-Петербург, Финляндский пр-кт., д.4, Литера А","class":"B+"},"geometry":{"type":"Point","coordinates":[30.342189,59.957782]}},{"type":"Feature","properties":{"name":"Бизнес-центр «на Трамвайном 32»","address":"Санкт-Петербург, Трамвайный пр-кт., д.32","class":"C"},"geometry":{"type":"Point","coordinates":[30.283906,59.854779]}},{"type":"Feature","properties":{"name":"Бизнес-центр «Atlas City»","address":"Санкт-Петербург, Московский пр-кт., д.120, Строение 1, Литера A","class":"A"},"geometry":{"type":"Point","coordinates":[30.320153,59.890198]}},{"type":"Feature","properties":{"name":"Бизнес-центр «Amber Hall»","address":"Санкт-Петербург, Энергетиков пр-кт., д.4, к.1, Литера A","class":"B+"},"geometry":{"type":"Point","coordinates":[30.434536,59.935299]}},{"type":"Feature","properties":{"name":"«Пропаганда»","address":"Санкт-Петербург, Маршала Говорова ул., д.35, к.4","class":"B"},"geometry":{"type":"Point","coordinates":[30.279828,59.888803]}},{"type":"Feature","properties":{"name":"Бизнес-центр «Энигма»","address":"Санкт-Петербург, Кронштадтская ул., д.10","class":"B"},"geometry":{"type":"Point","coordinates":[30.255537,59.87416]}},{"type":"Feature","properties":{"name":"Бизнес-центр «Адмирал»","address":"Санкт-Петербург, Митрофаньевское ш., д.2, к.1","class":"B"},"geometry":{"type":"Point","coordinates":[30.300893,59.907428]}},{"type":"Feature","properties":{"name":"Бизнес-центр «Полтавский»","address":"Санкт-Петербург, Полтавская ул., д.6, Литера А","class":"B+"},"geometry":{"type":"Point","coordinates":[30.371501,59.927653]}},{"type":"Feature","properties":{"name":"Бизнес-центр «Б5»","address":"Санкт-Петербург, Бакунина пр-кт., д.5","class":"B+"},"geometry":{"type":"Point","coordinates":[30.374995,59.929799]}},{"type":"Feature","properties":{"name":"Деловой центр «MEZON PLAZA»","address":"Санкт-Петербург, Сампсониевский Б. пр-кт., д.28, к.2, Литера Д","class":"B+"},"geometry":{"type":"Point","coordinates":[30.343383,59.963778]}},{"type":"Feature","properties":{"name":"Бизнес-центр «H2O»","address":"Санкт-Петербург, Химиков ул., д.28, Литера АС","class":"B+"},"geometry":{"type":"Point","coordinates":[30.481338,59.972267]}},{"type":"Feature","properties":{"name":"Бизнес-центр «Обуховъ-Центр»","address":"Санкт-Петербург, Обуховской Обороны пр-кт., д.271, Литера А","class":"B+"},"geometry":{"type":"Point","coordinates":[30.479254,59.851245]}},{"type":"Feature","properties":{"name":"Торгово-офисный комплекс «Эврика»","address":"Санкт-Петербург, Седова ул., д.11, Литера А","class":"B+"},"geometry":{"type":"Point","coordinates":[30.401954,59.900132]}},{"type":"Feature","properties":{"name":"Бизнес-центр «Т4»","address":"Санкт-Петербург, Седова ул., д.12","class":"B+"},"geometry":{"type":"Point","coordinates":[30.398181,59.903002]}},{"type":"Feature","properties":{"name":"Бизнес-центр «Лангензипен»","address":"Санкт-Петербург, Дивенская ул., д.1, Литера A","class":"A"},"geometry":{"type":"Point","coordinates":[30.319389,59.959494]}},{"type":"Feature","properties":{"name":"Бизнес-центр «Бенуа»","address":"Санкт-Петербург, Пискаревский пр-кт, д.2","class":"A"},"geometry":{"type":"Point","coordinates":[30.405313,59.958606]}},{"type":"Feature","properties":{"name":"Бизнес-центр «Лето»","address":"Санкт-Петербург, Свердловская наб., д.44, к.9, Литера Д","class":"A"},"geometry":{"type":"Point","coordinates":[30.404119,59.958642]}},{"type":"Feature","properties":{"name":"Бизнес-центр «Зима»","address":"Санкт-Петербург, Свердловская наб., д.44, Литера Ю","class":"A"},"geometry":{"type":"Point","coordinates":[30.402052,59.961224]}},{"type":"Feature","properties":{"name":"Бизнес-центр «Осень»","address":"Санкт-Петербург, Свердловская наб., д.44, Литера Я","class":"A"},"geometry":{"type":"Point","coordinates":[30.403121,59.961674]}},{"type":"Feature","properties":{"name":"Бизнес-центр «Магистраль»","address":"Санкт-Петербург, Днепропетровская ул., д.33, Литера А","class":"B"},"geometry":{"type":"Point","coordinates":[30.361529,59.916839]}},{"type":"Feature","properties":{"name":"Бизнес-центр «Фидель»","address":"Санкт-Петербург, Обуховской Обороны пр-кт., д.70, к.3","class":"B+"},"geometry":{"type":"Point","coordinates":[30.430233,59.901811]}},{"type":"Feature","properties":{"name":"Бизнес-центр «Александро-Невская мануфактура»","address":"Санкт-Петербург, Обуховской Обороны пр-кт., д.70, к.2","class":"B"},"geometry":{"type":"Point","coordinates":[30.429577,59.900597]}},{"type":"Feature","properties":{"name":"Офисно-складской комплекс «Александро-Невская мануфактура (Невский корпус)»","address":"Санкт-Петербург, Обуховской Обороны пр-кт., д.70, к.2, Литера Е"},"geometry":{"type":"Point","coordinates":[30.429577,59.900597]}},{"type":"Feature","properties":{"name":"Бизнес-центр «Осипофф»","address":"Санкт-Петербург, Цветочная ул., д.16, к.1","class":"B+"},"geometry":{"type":"Point","coordinates":[30.331813,59.886853]}},{"type":"Feature","properties":{"name":"Бизнес-центр «Башкировъ»","address":"Санкт-Петербург, Синопская наб., д.52","class":"B"},"geometry":{"type":"Point","coordinates":[30.39209,59.934506]}},{"type":"Feature","properties":{"name":"Бизнес-центр «Кантемировский»","address":"Санкт-Петербург, Аптекарская наб., д.12","class":"B"},"geometry":{"type":"Point","coordinates":[30.32327,59.975963]}},{"type":"Feature","properties":{"name":"Бизнес-центр «Ильич»","address":"Санкт-Петербург, Белоостровская ул., д.8","class":"B"},"geometry":{"type":"Point","coordinates":[30.326522,59.985404]}},{"type":"Feature","properties":{"name":"Бизнес-центр «Черная Речка»","address":"Санкт-Петербург, Белоостровская ул., д.22","class":"C"},"geometry":{"type":"Point","coordinates":[30.317386,59.986929]}},{"type":"Feature","properties":{"name":"Бизнес-центр «Звенигородский»","address":"Санкт-Петербург, Звенигородская ул., д.9-11","class":"C"},"geometry":{"type":"Point","coordinates":[30.341353,59.91747]}},{"type":"Feature","properties":{"name":"Бизнес-центр «К2»","address":"Санкт-Петербург, Конституции пл., д.2","class":"B"},"geometry":{"type":"Point","coordinates":[30.303121,59.85369]}},{"type":"Feature","properties":{"name":"Бизнес-центр «Троицкий»","address":"Санкт-Петербург, Мира ул., д.3","class":"C"},"geometry":{"type":"Point","coordinates":[30.313523,59.959012]}},{"type":"Feature","properties":{"name":"Бизнес-центр «Калинкинъ»","address":"Санкт-Петербург, Реки Фонтанки наб., д.166","class":"B"},"geometry":{"type":"Point","coordinates":[30.273782,59.915273]}},{"type":"Feature","properties":{"name":"Бизнес-центр «Смоленский»","address":"Санкт-Петербург, Уральская ул., д.4","class":"B"},"geometry":{"type":"Point","coordinates":[30.266048,59.950335]}},{"type":"Feature","properties":{"name":"Технопарк «Арсенал»","address":"Санкт-Петербург, Комсомола ул., д.1-3","class":"B"},"geometry":{"type":"Point","coordinates":[30.371564,59.956282]}},{"type":"Feature","properties":{"name":"Бизнес-центр «Студия на Кронверкской»","address":"Санкт-Петербург, Кронверкская ул., д.5","class":"B"},"geometry":{"type":"Point","coordinates":[30.313164,59.958169]}},{"type":"Feature","properties":{"name":"Торгово-офисный комплекс «Перинные ряды»","address":"Санкт-Петербург, Думская ул., д.4","class":"B"},"geometry":{"type":"Point","coordinates":[30.328328,59.933113]}},{"type":"Feature","properties":{"name":"Торгово-офисный комплекс «Шкиперский Молл»","address":"Санкт-Петербург, Малый В.О. пр-кт., д.88, Литера А","class":"B+"},"geometry":{"type":"Point","coordinates":[30.230627,59.938252]}},{"type":"Feature","properties":{"name":"Бизнес-центр «Итальянская»","address":"Санкт-Петербург, Итальянская ул., д.2","class":"B"},"geometry":{"type":"Point","coordinates":[30.328022,59.937215]}},{"type":"Feature","properties":{"name":"Технопарк «Арсенал Комсомола 2»","address":"Санкт-Петербург, Комсомола ул., д.2","class":"C"},"geometry":{"type":"Point","coordinates":[30.371321,59.955471]}},{"type":"Feature","properties":{"name":"Технопарк «Боровая»","address":"Санкт-Петербург, Боровая ул., д.51","class":"C"},"geometry":{"type":"Point","coordinates":[30.340275,59.912824]}},{"type":"Feature","properties":{"name":"Технопарк «Заозерная»","address":"Санкт-Петербург, Заозерная ул., д.8","class":"C+"},"geometry":{"type":"Point","coordinates":[30.323594,59.90718]}},{"type":"Feature","properties":{"name":"Технопарк «Ильич»","address":"Санкт-Петербург, Красногвардейский пер., д.23","class":"C+"},"geometry":{"type":"Point","coordinates":[30.320126,59.983567]}},{"type":"Feature","properties":{"name":"Технопарк «ЗПС»","address":"Санкт-Петербург, Красногвардейский пер., д.15","class":"C"},"geometry":{"type":"Point","coordinates":[30.323405,59.982073]}},{"type":"Feature","properties":{"name":"Технопарк «Курская 27»","address":"Санкт-Петербург, Курская ул., д.27","class":"C"},"geometry":{"type":"Point","coordinates":[30.35508,59.910771]}},{"type":"Feature","properties":{"name":"Административное здание «Малая Монетная»","address":"Санкт-Петербург, Малая Монетная ул., д.2","class":"C"},"geometry":{"type":"Point","coordinates":[30.319937,59.959156]}},{"type":"Feature","properties":{"name":"Технопарк «Новикова»","address":"Санкт-Петербург, Маршала Новикова ул., д.28","class":"B"},"geometry":{"type":"Point","coordinates":[30.273602,60.02713]}},{"type":"Feature","properties":{"name":"Административное здание «Студия на Тамбасова»","address":"Санкт-Петербург, Тамбасова ул., д.5","class":"C"},"geometry":{"type":"Point","coordinates":[30.154432,59.841401]}},{"type":"Feature","properties":{"name":"Бизнес-центр «Светлана»","address":"Санкт-Петербург, Энгельса пр-кт., д.27","class":"C"},"geometry":{"type":"Point","coordinates":[30.328022,60.005324]}},{"type":"Feature","properties":{"name":"Бизнес-центр «Светлана Энгельса 33»","address":"Санкт-Петербург, Энгельса пр-кт., д.33, к.1","class":"B"},"geometry":{"type":"Point","coordinates":[30.326298,60.009602]}},{"type":"Feature","properties":{"name":"Технопарк «Мебельная»","address":"Санкт-Петербург, Мебельная ул., д.5","class":"C"},"geometry":{"type":"Point","coordinates":[30.242467,59.991205]}},{"type":"Feature","properties":{"name":"Технопарк «Промышленная 5»","address":"Санкт-Петербург, Промышленная ул., д.5","class":"C"},"geometry":{"type":"Point","coordinates":[30.270809,59.899045]}},{"type":"Feature","properties":{"name":"Технопарк «Шаумяна 56»","address":"Санкт-Петербург, Салова ул., д.56","class":"B"},"geometry":{"type":"Point","coordinates":[30.384374,59.890586]}},{"type":"Feature","properties":{"name":"Технопарк «Шаумяна 45»","address":"Санкт-Петербург, Салова ул., д.45","class":"C"},"geometry":{"type":"Point","coordinates":[30.380664,59.890505]}},{"type":"Feature","properties":{"name":"Бизнес-центр «Петрозаводская 12»","address":"Санкт-Петербург, Петрозаводская ул., д.12","class":"B+"},"geometry":{"type":"Point","coordinates":[30.290598,59.963552]}},{"type":"Feature","properties":{"name":"Бизнес-центр «АТИ ЦЕНТР»","address":"Санкт-Петербург, Цветочная ул., д.16","class":"B+"},"geometry":{"type":"Point","coordinates":[30.331813,59.886853]}},{"type":"Feature","properties":{"name":"Технопарк «Ленхладокомбинат»","address":"Санкт-Петербург, Шкапина ул., д.43-45","class":"C"},"geometry":{"type":"Point","coordinates":[30.289377,59.903647]}},{"type":"Feature","properties":{"name":"Технопарк «Нарвский»","address":"Санкт-Петербург, Швецова ул., д.41","class":"C"},"geometry":{"type":"Point","coordinates":[30.291155,59.897456]}},{"type":"Feature","properties":{"name":"Торгово-офисный комплекс «Фрунзе»","address":"Санкт-Петербург, Фрунзе ул., д.16","class":"C"},"geometry":{"type":"Point","coordinates":[30.327771,59.862411]}},{"type":"Feature","properties":{"name":"Бизнес-центр «Рассвет»","address":"Санкт-Петербург, Дегтярная ул., д.5-7","class":"C"},"geometry":{"type":"Point","coordinates":[30.372022,59.931977]}},{"type":"Feature","properties":{"name":"Бизнес-центр «Софийская 2»","address":"Санкт-Петербург, Софийская ул., д.2","class":"C"},"geometry":{"type":"Point","coordinates":[30.383511,59.888234]}},{"type":"Feature","properties":{"name":"Бизнес-центр «Юрия Гагарина 2»","address":"Санкт-Петербург, Юрия Гагарина пр-кт., д.2","class":"C"},"geometry":{"type":"Point","coordinates":[30.337302,59.873573]}},{"type":"Feature","properties":{"name":"Бизнес-центр «Бабушкина 3»","address":"Санкт-Петербург, Бабушкина ул., д.3","class":"B"},"geometry":{"type":"Point","coordinates":[30.418519,59.897767]}},{"type":"Feature","properties":{"name":"Бизнес-центр «Лермонтовский 7А»","address":"Санкт-Петербург, Лермонтовский пр-кт., д.7, Литера А","class":"C"},"geometry":{"type":"Point","coordinates":[30.291667,59.923189]}},{"type":"Feature","properties":{"name":"Бизнес-центр «Новочеркасский 58»","address":"Санкт-Петербург, Новочеркасский пр-кт., д.58","class":"B"},"geometry":{"type":"Point","coordinates":[30.421492,59.921412]}},{"type":"Feature","properties":{"name":"Бизнес-центр «Кузнецовская 19»","address":"Санкт-Петербург, Кузнецовская ул., д.19","class":"C"},"geometry":{"type":"Point","coordinates":[30.317503,59.87145]}},{"type":"Feature","properties":{"name":"Деловой центр «Кузнецовская 52»","address":"Санкт-Петербург, Кузнецовская ул., д.52, к.12, Литера А","class":"B"},"geometry":{"type":"Point","coordinates":[30.33803,59.873763]}},{"type":"Feature","properties":{"name":"Деловой центр «Сабировская 45»","address":"Санкт-Петербург, Рубежная ул., д.3","class":"C"},"geometry":{"type":"Point","coordinates":[30.275435,59.990516]}},{"type":"Feature","properties":{"name":"Деловой центр «Возрождения 42»","address":"Санкт-Петербург, Возрождения ул., д.42","class":"C"},"geometry":{"type":"Point","coordinates":[30.285415,59.8799]}},{"type":"Feature","properties":{"name":"Бизнес-центр «Автовская 17»","address":"Санкт-Петербург, Автовская ул., д.17","class":"C"},"geometry":{"type":"Point","coordinates":[30.269937,59.868559]}},{"type":"Feature","properties":{"name":"Бизнес-центр «Афонская 2»","address":"Санкт-Петербург, Афонская ул., д.2","class":"C"},"geometry":{"type":"Point","coordinates":[30.303831,60.017333]}},{"type":"Feature","properties":{"name":"Бизнес-центр «Константиновский 11»","address":"Санкт-Петербург, Константиновский пр-кт., д.11","class":"B"},"geometry":{"type":"Point","coordinates":[30.271644,59.972627]}},{"type":"Feature","properties":{"name":"Бизнес-центр «Большая Посадская 16»","address":"Санкт-Петербург, Большая Посадская ул., д.16","class":"C"},"geometry":{"type":"Point","coordinates":[30.325687,59.95967]}},{"type":"Feature","properties":{"name":"Бизнес-центр «Jensen House»","address":"Санкт-Петербург, Макарова наб., д.32","class":"A"},"geometry":{"type":"Point","coordinates":[30.277546,59.949132]}},{"type":"Feature","properties":{"name":"Бизнес-центр «Alia Tempora»","address":"Санкт-Петербург, Маяковского ул., д.3Б, Литера А","class":"B+"},"geometry":{"type":"Point","coordinates":[30.357595,59.933492]}},{"type":"Feature","properties":{"name":"Бизнес-центр «Tempo»","address":"Санкт-Петербург, Невский пр-кт., д.104","class":"B+"},"geometry":{"type":"Point","coordinates":[30.356589,59.931882]}},{"type":"Feature","properties":{"name":"Бизнес-центр «Литера»","address":"Санкт-Петербург, Галерная ул., д.10","class":"B"},"geometry":{"type":"Point","coordinates":[30.299339,59.934632]}},{"type":"Feature","properties":{"name":"Бизнес-центр «Портал»","address":"Санкт-Петербург, Бумажная ул., д.18","class":"B"},"geometry":{"type":"Point","coordinates":[30.266443,59.905583]}},{"type":"Feature","properties":{"name":"Бизнес-центр «Энергия»","address":"Санкт-Петербург, Ленинский пр-кт., д.168","class":"C"},"geometry":{"type":"Point","coordinates":[30.310236,59.852497]}},{"type":"Feature","properties":{"name":"Бизнес-центр «Балтика-Вена»","address":"Санкт-Петербург, Фарфоровская ул., д.1","class":"B"},"geometry":{"type":"Point","coordinates":[30.433089,59.88074]}},{"type":"Feature","properties":{"name":"Бизнес-центр «Люботинский 5»","address":"Санкт-Петербург, Люботинский пр-кт., д.5","class":"B"},"geometry":{"type":"Point","coordinates":[30.339889,59.883295]}},{"type":"Feature","properties":{"name":"Бизнес-центр «Качалова 9»","address":"Санкт-Петербург, Профессора Качалова ул., д.9","class":"C"},"geometry":{"type":"Point","coordinates":[30.39412,59.911904]}},{"type":"Feature","properties":{"name":"Бизнес-центр «Пассаж-Итальянская, 17»","address":"Санкт-Петербург, Итальянская ул., д.17, Литера А","class":"A"},"geometry":{"type":"Point","coordinates":[30.334293,59.936133]}},{"type":"Feature","properties":{"name":"Бизнес-центр «Талер»","address":"Санкт-Петербург, Промышленная ул., д.14, Строение А","class":"B"},"geometry":{"type":"Point","coordinates":[30.269874,59.897957]}},{"type":"Feature","properties":{"name":"Бизнес-центр «Тентельхов»","address":"Санкт-Петербург, Швецова ул., д.41","class":"C"},"geometry":{"type":"Point","coordinates":[30.291155,59.897456]}},{"type":"Feature","properties":{"name":"Бизнес-центр «Андреевский двор»","address":"Санкт-Петербург, Большой В.О. пр-кт., д.18, Литера А","class":"B"},"geometry":{"type":"Point","coordinates":[30.28422,59.939063]}},{"type":"Feature","properties":{"name":"Бизнес-центр «Остров»","address":"Санкт-Петербург, Средний В.О. пр-кт., д.36/40","class":"B"},"geometry":{"type":"Point","coordinates":[30.275992,59.942025]}},{"type":"Feature","properties":{"name":"Бизнес-центр «КУБ»","address":"Санкт-Петербург, Тореза пр-кт., д.102, к.4","class":"C"},"geometry":{"type":"Point","coordinates":[30.329819,60.019001]}},{"type":"Feature","properties":{"name":"Бизнес-центр «Красная Нить»","address":"Санкт-Петербург, Гельсингфорсская ул., д.3","class":"B"},"geometry":{"type":"Point","coordinates":[30.337769,59.974941]}},{"type":"Feature","properties":{"name":"Бизнес-центр «Интертерминал ПроЛоджис»","address":"Санкт-Петербург, Кубинская ул., д.75","class":"B"},"geometry":{"type":"Point","coordinates":[30.297956,59.840985]}},{"type":"Feature","properties":{"name":"Бизнес-центр «Разъезжая 5»","address":"Санкт-Петербург, Разъезжая ул., д.5","class":"B"},"geometry":{"type":"Point","coordinates":[30.343707,59.92543]}},{"type":"Feature","properties":{"name":"Бизнес-центр «Некрасова 14»","address":"Санкт-Петербург, Некрасова ул., д.14","class":"A"},"geometry":{"type":"Point","coordinates":[30.086142,59.818635]}},{"type":"Feature","properties":{"name":"Бизнес-центр «Левашовский»","address":"Санкт-Петербург, Левашовский пр-кт., д.12, к.А","class":"C"},"geometry":{"type":"Point","coordinates":[30.292961,59.965885]}},{"type":"Feature","properties":{"name":"Бизнес-центр «Карповка»","address":"Санкт-Петербург, Медиков пр-кт., д.5, Литера B","class":"B"},"geometry":{"type":"Point","coordinates":[30.314548,59.969547]}},{"type":"Feature","properties":{"name":"Бизнес-центр «Аврора»","address":"Санкт-Петербург, Чапаева ул., д.3","class":"B"},"geometry":{"type":"Point","coordinates":[30.333304,59.958183]}},{"type":"Feature","properties":{"name":"Бизнес-центр «Graffiti»","address":"Санкт-Петербург, Кондратьевский пр-кт., д.15, к.5","class":"B+"},"geometry":{"type":"Point","coordinates":[30.38423,59.963597]}},{"type":"Feature","properties":{"name":"Бизнес-центр «Толстой сквер»","address":"Санкт-Петербург, Льва Толстого ул., д.9","class":"A"},"geometry":{"type":"Point","coordinates":[30.31567,59.965124]}},{"type":"Feature","properties":{"name":"Бизнес-центр «Фернан Леже»","address":"Санкт-Петербург, Кондратьевский пр-кт., д.15, к.К2, Литера 3","class":"B+"},"geometry":{"type":"Point","coordinates":[30.381212,59.964093]}},{"type":"Feature","properties":{"name":"Бизнес-центр «Лада»","address":"Санкт-Петербург, Энергетиков пр-кт., д.3, Литера А","class":"B+"},"geometry":{"type":"Point","coordinates":[30.43768,59.931012]}},{"type":"Feature","properties":{"name":"Бизнес-центр «Кондратьевский»","address":"Санкт-Петербург, Кондратьевский пр-кт., д.15, к.3","class":"B"},"geometry":{"type":"Point","coordinates":[30.382011,59.964786]}},{"type":"Feature","properties":{"name":"Бизнес-центр «The office»","address":"Санкт-Петербург, Ключевая ул., д.30, Литера А","class":"B"},"geometry":{"type":"Point","coordinates":[30.409544,59.974955]}},{"type":"Feature","properties":{"name":"Бизнес-центр «Гельсингфорсский»","address":"Санкт-Петербург, Выборгская наб., д.2, Литера А","class":"A"},"geometry":{"type":"Point","coordinates":[30.329819,59.976256]}},{"type":"Feature","properties":{"name":"Бизнес-центр «Гренадерский»","address":"Санкт-Петербург, Выборгская наб., д.47","class":"B+"},"geometry":{"type":"Point","coordinates":[30.334023,59.973473]}},{"type":"Feature","properties":{"name":"Бизнес-центр «Арена Холл»","address":"Санкт-Петербург, Добролюбова пр-кт., д.16, к.2, Литера А","class":"B+"},"geometry":{"type":"Point","coordinates":[30.294928,59.950181]}},{"type":"Feature","properties":{"name":"Бизнес-центр «БЦ Офисный дом Большой 100»","address":"Санкт-Петербург, Большой П.С. пр-кт., д.100","class":"B"},"geometry":{"type":"Point","coordinates":[30.313047,59.966719]}},{"type":"Feature","properties":{"name":"Бизнес-центр «Смоленский (Смоленская, 33)»","address":"Санкт-Петербург, Смоленская ул., д.33","class":"B"},"geometry":{"type":"Point","coordinates":[30.328642,59.90469]}},{"type":"Feature","properties":{"name":"Бизнес-центр «City-Classic»","address":"Санкт-Петербург, Чапаева ул., д.5","class":"A"},"geometry":{"type":"Point","coordinates":[30.332729,59.958791]}},{"type":"Feature","properties":{"name":"Бизнес-центр «City-Lux»","address":"Санкт-Петербург, Петроградская наб., д.18, Литера А","class":"A"},"geometry":{"type":"Point","coordinates":[30.334409,59.959269]}},{"type":"Feature","properties":{"name":"Бизнес-центр «Премиум»","address":"Санкт-Петербург, Мельничная ул., д.8","class":"A"},"geometry":{"type":"Point","coordinates":[30.39545,59.915025]}},{"type":"Feature","properties":{"name":"Бизнес-центр «Печатный двор»","address":"Санкт-Петербург, Чкаловский пр-кт., д.15","class":"C"},"geometry":{"type":"Point","coordinates":[30.295494,59.962899]}},{"type":"Feature","properties":{"name":"Бизнес-центр «RENAISSANCE PLAZA»","address":"Санкт-Петербург, Марата ул., д.69-71","class":"A"},"geometry":{"type":"Point","coordinates":[30.343177,59.921033]}},{"type":"Feature","properties":{"name":"Бизнес-центр «RENAISSANCE HALL»","address":"Санкт-Петербург, Владимирский пр-кт., д.23","class":"A"},"geometry":{"type":"Point","coordinates":[30.34686,59.928154]}},{"type":"Feature","properties":{"name":"Бизнес-центр «БЦ \"Европа Хаус\"»","address":"Санкт-Петербург, Артиллерийская ул., д.1","class":"B"},"geometry":{"type":"Point","coordinates":[30.351693,59.941615]}},{"type":"Feature","properties":{"name":"Бизнес-центр «Содружество (Коломяжский, 27)»","address":"Санкт-Петербург, Коломяжский пр-кт., д.27, Литера А","class":"B+"},"geometry":{"type":"Point","coordinates":[30.295458,60.0136]}},{"type":"Feature","properties":{"name":"Бизнес-центр «Ленниихиммаш»","address":"Санкт-Петербург, Александра Невского ул., д.9","class":"B"},"geometry":{"type":"Point","coordinates":[30.385488,59.926395]}},{"type":"Feature","properties":{"name":"Бизнес-центр «Резиденция на Суворовском»","address":"Санкт-Петербург, Кирочная ул., д.64, Литера А","class":"A"},"geometry":{"type":"Point","coordinates":[30.386377,59.940835]}},{"type":"Feature","properties":{"name":"Офисно-жилой комплекс «Есенина, 1к1»","address":"Санкт-Петербург, Есенина ул., д.1","class":"B"},"geometry":{"type":"Point","coordinates":[30.329433,60.027116]}},{"type":"Feature","properties":{"name":"Офисное здание «Офис-М Большой пр. ПС 32»","address":"Санкт-Петербург, Большой П.С. пр-кт., д.32"},"geometry":{"type":"Point","coordinates":[30.298486,59.957669]}},{"type":"Feature","properties":{"name":"Офисное здание «Офис-М Большой пр. ПС 7»","address":"Санкт-Петербург, Большой П.С. пр-кт., д.7"},"geometry":{"type":"Point","coordinates":[30.293823,59.953507]}},{"type":"Feature","properties":{"name":"Офисное здание «Офис-М Большой пр. ПС 76»","address":"Санкт-Петербург, Большой П.С. пр-кт., д.76"},"geometry":{"type":"Point","coordinates":[30.30817,59.963593]}},{"type":"Feature","properties":{"name":"Офисное здание «Офис-М Невский пр. 173»","address":"Санкт-Петербург, Невский пр-кт., д.173"},"geometry":{"type":"Point","coordinates":[30.382909,59.924172]}},{"type":"Feature","properties":{"name":"Офисное здание «Офис-М Невский пр. 22»","address":"Санкт-Петербург, Невский пр-кт., д.22"},"geometry":{"type":"Point","coordinates":[30.324097,59.935944]}},{"type":"Feature","properties":{"name":"Офисное здание «Офис-М Невский пр. 51»","address":"Санкт-Петербург, Невский пр-кт., д.51"},"geometry":{"type":"Point","coordinates":[30.349223,59.932261]}},{"type":"Feature","properties":{"name":"Офисное здание «Офис-М Невский пр. 151»","address":"Санкт-Петербург, Невский пр-кт., д.151"},"geometry":{"type":"Point","coordinates":[30.379316,59.925498]}},{"type":"Feature","properties":{"name":"Офисное здание «Офис-М Невский пр. 24»","address":"Санкт-Петербург, Невский пр-кт., д.24"},"geometry":{"type":"Point","coordinates":[30.324097,59.935944]}},{"type":"Feature","properties":{"name":"Бизнес-центр «Пионеръ»","address":"Санкт-Петербург, Пионерская ул., д.55","class":"B"},"geometry":{"type":"Point","coordinates":[30.282523,59.960733]}},{"type":"Feature","properties":{"name":"Бизнес-центр «Малевич»","address":"Санкт-Петербург, Митрофаньевское ш., д.2, к.2"},"geometry":{"type":"Point","coordinates":[30.300669,59.90367]}},{"type":"Feature","properties":{"name":"Бизнес-центр «Рождественский»","address":"Санкт-Петербург, Фуражный пер., д.3, Литера К","class":"C+"},"geometry":{"type":"Point","coordinates":[30.3731,59.938622]}},{"type":"Feature","properties":{"name":"Бизнес-центр «Грант+»","address":"Санкт-Петербург, Октябрьская наб., д.6, Литера В","class":"C+"},"geometry":{"type":"Point","coordinates":[30.416399,59.914637]}},{"type":"Feature","properties":{"name":"Бизнес-центр «БЦ РУСАЛ ВАМИ»","address":"Санкт-Петербург, Средний В.О. пр-кт., д.86","class":"C"},"geometry":{"type":"Point","coordinates":[30.253067,59.934871]}},{"type":"Feature","properties":{"name":"Многофункциональный комплекс «БЦ Садовая, 28-30»","address":"Санкт-Петербург, Садовая ул., д.28","class":"C"},"geometry":{"type":"Point","coordinates":[30.327923,59.930751]}},{"type":"Feature","properties":{"name":"Торгово-офисный комплекс «Строй-Центр Полюстровский, 28»","address":"Санкт-Петербург, Полюстровский пр-кт., д.28"},"geometry":{"type":"Point","coordinates":[30.393896,59.966714]}},{"type":"Feature","properties":{"name":"Бизнес-центр «Мармара»","address":"Санкт-Петербург, Новороссийская ул., д.26, к.2, Литера А","class":"B"},"geometry":{"type":"Point","coordinates":[30.341308,59.997199]}},{"type":"Feature","properties":{"name":"Офисно-складской комплекс «БЦ Уткина Заводь»","address":"Санкт-Петербург, Октябрьская наб., д.104, к.41","class":"B"},"geometry":{"type":"Point","coordinates":[30.490016,59.873826]}},{"type":"Feature","properties":{"name":"Многофункциональный комплекс «БЦ Бастион»","address":"Санкт-Петербург, Седова ул., д.13, Литера А","class":"C"},"geometry":{"type":"Point","coordinates":[30.405951,59.897808]}},{"type":"Feature","properties":{"name":"Офисно-жилой комплекс «Офисное здание»","address":"Санкт-Петербург, Пулковская ул., д.8, к.1, Литера А","class":"A"},"geometry":{"type":"Point","coordinates":[30.350426,59.838041]}},{"type":"Feature","properties":{"name":"Бизнес-центр «Суворовский»","address":"Санкт-Петербург, Суворовский пр-кт., д.2, Литера А","class":"B"},"geometry":{"type":"Point","coordinates":[30.366623,59.931535]}},{"type":"Feature","properties":{"name":"Офисно-складской комплекс «Белы Куна д. 34 | KROL»","address":"Санкт-Петербург, Белы Куна ул., д.34","class":"C"},"geometry":{"type":"Point","coordinates":[30.402843,59.880898]}},{"type":"Feature","properties":{"name":"Бизнес-парк «Михайловский»","address":"Санкт-Петербург, Михайлова ул., д.17, к.2","class":"B"},"geometry":{"type":"Point","coordinates":[30.363515,59.95698]}},{"type":"Feature","properties":{"name":"Бизнес-центр «ПОЛЮС»","address":"Санкт-Петербург, Полюстровский пр-кт., д.43, Литера А","class":"B+"},"geometry":{"type":"Point","coordinates":[30.388991,59.968583]}},{"type":"Feature","properties":{"name":"Бизнес-центр «БЦ Вант»","address":"Санкт-Петербург, Обуховской Обороны пр-кт., д.112, к.2, Литера И, З","class":"B"},"geometry":{"type":"Point","coordinates":[30.392737,59.922188]}},{"type":"Feature","properties":{"name":"Деловой центр «ДЦ \"Кристалл\"»","address":"Санкт-Петербург, Седова ул., д.37","class":"B"},"geometry":{"type":"Point","coordinates":[30.421384,59.887349]}},{"type":"Feature","properties":{"name":"Бизнес-центр «МФК Миллер Центр»","address":"Санкт-Петербург, Комендантский пр-кт., д.11, Литера B","class":"B+"},"geometry":{"type":"Point","coordinates":[30.262346,60.00657]}},{"type":"Feature","properties":{"name":"Бизнес-центр «БЦ Мануфактура Громова»","address":"Санкт-Петербург, Обуховской Обороны пр-кт., д.76, Литера Р","class":"B"},"geometry":{"type":"Point","coordinates":[30.434778,59.898322]}},{"type":"Feature","properties":{"name":"Бизнес-центр «Румба»","address":"Санкт-Петербург, Васи Алексеева ул., д.6","class":"B"},"geometry":{"type":"Point","coordinates":[30.265616,59.879918]}},{"type":"Feature","properties":{"name":"Бизнес-центр «Класс на Набережной Обводного канала»","address":"Санкт-Петербург, Обводного канала наб., д.118, Литера АЖ","class":"C+"},"geometry":{"type":"Point","coordinates":[30.300776,59.905154]}},{"type":"Feature","properties":{"name":"Административное здание «Офисное здание Минеральная 13, лит. Ч.»","address":"Санкт-Петербург, Минеральная ул., д.13, Литера Ч","class":"C"},"geometry":{"type":"Point","coordinates":[30.372462,59.967525]}},{"type":"Feature","properties":{"name":"Бизнес-центр «Треугольник»","address":"Санкт-Петербург, Обводного канала наб., д.138, Литера А,Б,B","class":"B"},"geometry":{"type":"Point","coordinates":[30.28007,59.908647]}},{"type":"Feature","properties":{"name":"Торгово-офисный комплекс «Энгельс-центр»","address":"Санкт-Петербург, Энгельса пр-кт., д.27, Литера Ц","class":"B"},"geometry":{"type":"Point","coordinates":[30.327789,60.006539]}},{"type":"Feature","properties":{"name":"Бизнес-центр «ЭраКросс»","address":"Санкт-Петербург, Революции ш., д.83, к.Б","class":"B"},"geometry":{"type":"Point","coordinates":[30.47787,59.965449]}},{"type":"Feature","properties":{"name":"Бизнес-центр «Матисов Остров»","address":"Санкт-Петербург, Александра Блока ул., д.5","class":"B"},"geometry":{"type":"Point","coordinates":[30.278678,59.924582]}},{"type":"Feature","properties":{"name":"Офисный особняк «Московский 151»","address":"Санкт-Петербург, Московский пр-кт., д.151","class":"B+"},"geometry":{"type":"Point","coordinates":[30.319021,59.873726]}},{"type":"Feature","properties":{"name":"Бизнес-центр «Лесной»","address":"Санкт-Петербург, Лесной пр-кт., д.63, Литера А","class":"B"},"geometry":{"type":"Point","coordinates":[30.342458,59.985462]}},{"type":"Feature","properties":{"name":"Бизнес-центр «Дом Инноваций»","address":"Санкт-Петербург, Бумажная ул., д.4, Литера А","class":"B"},"geometry":{"type":"Point","coordinates":[30.271662,59.90335]}},{"type":"Feature","properties":{"name":"Административное здание «Тверская 8Б»","address":"Санкт-Петербург, Тверская ул., д.8, к.2, Строение Б","class":"A"},"geometry":{"type":"Point","coordinates":[30.380843,59.947419]}},{"type":"Feature","properties":{"name":"Бизнес-центр «БЦ ВАНТ»","address":"Санкт-Петербург, Обуховской Обороны пр-кт., д.112, к.2, Литера И,З","class":"B"},"geometry":{"type":"Point","coordinates":[30.392737,59.922188]}},{"type":"Feature","properties":{"name":"Бизнес-центр «Революции 69»","address":"Санкт-Петербург, Революции ш., д.69, Литера В","class":"B"},"geometry":{"type":"Point","coordinates":[30.463632,59.961575]}},{"type":"Feature","properties":{"name":"Бизнес-центр «Октябрьская наб., дом 104, корп.1, лит. П»","address":"Санкт-Петербург, Октябрьская наб., д.104, к.1, Литера П","class":"B"},"geometry":{"type":"Point","coordinates":[30.48556,59.868478]}},{"type":"Feature","properties":{"name":"Бизнес-центр «Арсенальный»","address":"Санкт-Петербург, Арсенальная ул., д.1, к.2","class":"B"},"geometry":{"type":"Point","coordinates":[30.374798,59.957088]}},{"type":"Feature","properties":{"name":"Бизнес-центр «Новоселов 8»","address":"Санкт-Петербург, Новоселов ул., д.8","class":"B"},"geometry":{"type":"Point","coordinates":[30.461189,59.883702]}},{"type":"Feature","properties":{"name":"Бизнес-центр «Бухарестская, 24»","address":"Санкт-Петербург, Бухарестская ул., д.24, к.1","class":"C+"},"geometry":{"type":"Point","coordinates":[30.366048,59.885977]}},{"type":"Feature","properties":{"name":"Бизнес-центр «Loft-Ю»","address":"Санкт-Петербург, Обводного канала наб., д.199-201, Литера Н","class":"B+"},"geometry":{"type":"Point","coordinates":[30.285433,59.910086]}},{"type":"Feature","properties":{"name":"Бизнес-центр «Большая Морская, 28/13»","address":"Санкт-Петербург, Большая Морская ул., д.28/13","class":"B"},"geometry":{"type":"Point","coordinates":[30.313443,59.933875]}},{"type":"Feature","properties":{"name":"Бизнес-центр «БЦ \"Яблочкова 12\"»","address":"Санкт-Петербург, Яблочкова ул., д.12","class":"B+"},"geometry":{"type":"Point","coordinates":[30.300974,59.950605]}},{"type":"Feature","properties":{"name":"Бизнес-центр «Петроградский»","address":"Санкт-Петербург, Большой П.С. пр-кт., д.29, Литера Б","class":"B"},"geometry":{"type":"Point","coordinates":[30.299788,59.957895]}},{"type":"Feature","properties":{"name":"Бизнес-центр «RENAISSANCE CENTER»","address":"Санкт-Петербург, Шателена ул., д.25, Литера A","class":"B+"},"geometry":{"type":"Point","coordinates":[30.358736,60.005859]}},{"type":"Feature","properties":{"name":"Бизнес-центр «RENAISSANCE HOUSE»","address":"Санкт-Петербург, Советская 2-я ул., д.17","class":"B+"},"geometry":{"type":"Point","coordinates":[30.368096,59.931648]}},{"type":"Feature","properties":{"name":"Бизнес-центр «RENAISSANCE PRAVDA»","address":"Санкт-Петербург, Херсонская ул., д.12","class":"A"},"geometry":{"type":"Point","coordinates":[30.381005,59.928654]}},{"type":"Feature","properties":{"name":"Бизнес-центр «Е3000»","address":"Санкт-Петербург, Пушкарская Б. ул., д.41","class":"B"},"geometry":{"type":"Point","coordinates":[30.311278,59.963224]}},{"type":"Feature","properties":{"name":"Бизнес-центр «ЛюмьерХаус»","address":"Санкт-Петербург, Кронверкская ул., д.5","class":"B"},"geometry":{"type":"Point","coordinates":[30.313164,59.958169]}},{"type":"Feature","properties":{"name":"Бизнес-центр «RENAISSANCE PREMIUM»","address":"Санкт-Петербург, Решетникова ул., д.14","class":"A"},"geometry":{"type":"Point","coordinates":[30.325633,59.879177]}},{"type":"Feature","properties":{"name":"Бизнес-центр «Меридиан»","address":"Санкт-Петербург, Ленинский пр-кт., д.160, Литера А","class":"B"},"geometry":{"type":"Point","coordinates":[30.301055,59.852384]}},{"type":"Feature","properties":{"name":"Бизнес-центр «Сампсониевский»","address":"Санкт-Петербург, Большой Сампсониевский пр-кт., д.32","class":"B"},"geometry":{"type":"Point","coordinates":[30.342072,59.967435]}},{"type":"Feature","properties":{"name":"Бизнес-центр «Аиси»","address":"Санкт-Петербург, Гельсингфорсская ул., д.4, к.1","class":"C"},"geometry":{"type":"Point","coordinates":[30.335415,59.974054]}},{"type":"Feature","properties":{"name":"Бизнес-центр «Парнас Центр»","address":"Санкт-Петербург, 6-й Верхний пер., д.12, Литера А","class":"B"},"geometry":{"type":"Point","coordinates":[30.356643,60.077095]}},{"type":"Feature","properties":{"name":"Бизнес-центр «Прагма»","address":"Санкт-Петербург, Светлановский пр-кт., д.2","class":"B"},"geometry":{"type":"Point","coordinates":[30.331652,60.005751]}},{"type":"Feature","properties":{"name":"Бизнес-центр «Аквилон»","address":"Санкт-Петербург, Новолитовская ул., д.15","class":"B"},"geometry":{"type":"Point","coordinates":[30.35569,59.980907]}},{"type":"Feature","properties":{"name":"Бизнес-центр «Ракета»","address":"Санкт-Петербург, Санкт-Петербургское ш., д.60","class":"B"},"geometry":{"type":"Point","coordinates":[30.060953,59.851092]}},{"type":"Feature","properties":{"name":"Бизнес-центр «Порт»","address":"Санкт-Петербург, Трефолева ул., д.2, Литера БН","class":"C"},"geometry":{"type":"Point","coordinates":[30.281364,59.886713]}},{"type":"Feature","properties":{"name":"Бизнес-центр «Глобус»","address":"Санкт-Петербург, Крапивный пер., д.5","class":"B"},"geometry":{"type":"Point","coordinates":[30.338883,59.969763]}},{"type":"Feature","properties":{"name":"Бизнес-центр «Пресском-Недвижимость»","address":"Санкт-Петербург, Малая Разночинная ул., д.9","class":"B"},"geometry":{"type":"Point","coordinates":[30.291317,59.958458]}},{"type":"Feature","properties":{"name":"Бизнес-центр «RENAISSANCE CRYSTAL»","address":"Санкт-Петербург, Реки Пряжки наб., д.7","class":"A"},"geometry":{"type":"Point","coordinates":[30.280564,59.923414]}},{"type":"Feature","properties":{"name":"Бизнес-центр «RENAISSANCE FORUM»","address":"Санкт-Петербург, Лиговский пр-кт., д.61-63","class":"A"},"geometry":{"type":"Point","coordinates":[30.358574,59.927937]}},{"type":"Feature","properties":{"name":"Бизнес-центр «Красная Заря»","address":"Санкт-Петербург, Гельсингфорсская ул., д.4, к.1","class":"C"},"geometry":{"type":"Point","coordinates":[30.335415,59.974054]}},{"type":"Feature","properties":{"name":"Бизнес-центр «Сервис на Московском»","address":"Санкт-Петербург, Московский пр-кт., д.2, к.6","class":"B"},"geometry":{"type":"Point","coordinates":[30.317934,59.925858]}},{"type":"Feature","properties":{"name":"Бизнес-центр «Владимирский 17»","address":"Санкт-Петербург, Владимирский пр-кт., д.17","class":"C"},"geometry":{"type":"Point","coordinates":[30.347156,59.928771]}},{"type":"Feature","properties":{"name":"Бизнес-центр «Тусар»","address":"Санкт-Петербург, Красного Курсанта ул., д.25, Строение Н","class":"B+"},"geometry":{"type":"Point","coordinates":[30.280268,59.961206]}},{"type":"Feature","properties":{"name":"Бизнес-центр «Караванная 1»","address":"Санкт-Петербург, Караванная ул., д.1","class":"C"},"geometry":{"type":"Point","coordinates":[30.341263,59.937603]}},{"type":"Feature","properties":{"name":"Бизнес-центр «Невский 30»","address":"Санкт-Петербург, Невский пр-кт., д.30","class":"B"},"geometry":{"type":"Point","coordinates":[30.32734,59.935538]}},{"type":"Feature","properties":{"name":"Бизнес-центр «У Красного Моста»","address":"Санкт-Петербург, Реки Мойки наб., д.73-79","class":"A"},"geometry":{"type":"Point","coordinates":[30.314341,59.933181]}},{"type":"Feature","properties":{"name":"Бизнес-центр «Мельник»","address":"Санкт-Петербург, Профессора Качалова ул., д.7, Литера А Б","class":"B+"},"geometry":{"type":"Point","coordinates":[30.396285,59.914281]}},{"type":"Feature","properties":{"name":"Бизнес-центр «Невский 38»","address":"Санкт-Петербург, Невский пр-кт., д.38","class":"A"},"geometry":{"type":"Point","coordinates":[30.331445,59.93525]}},{"type":"Feature","properties":{"name":"Бизнес-центр «Сенатор Большая Морская»","address":"Санкт-Петербург, Большая Морская ул., д.15","class":"A"},"geometry":{"type":"Point","coordinates":[30.315374,59.935002]}},{"type":"Feature","properties":{"name":"Бизнес-центр «Сенатор Жуковского 63»","address":"Санкт-Петербург, Жуковского ул., д.63","class":"B+"},"geometry":{"type":"Point","coordinates":[30.363173,59.935638]}},{"type":"Feature","properties":{"name":"Бизнес-центр «Сенатор 2-я Советская»","address":"Санкт-Петербург, 2-я Советская ул., д.7","class":"B+"},"geometry":{"type":"Point","coordinates":[30.366093,59.932347]}},{"type":"Feature","properties":{"name":"Бизнес-центр «Сенатор набережная Мойки»","address":"Санкт-Петербург, Реки Мойки наб., д.36, к.1","class":"A"},"geometry":{"type":"Point","coordinates":[30.320243,59.937968]}},{"type":"Feature","properties":{"name":"Бизнес-центр «Сенатор 6-я Красноармейская»","address":"Санкт-Петербург, 6-я Красноармейская ул., д.7","class":"B+"},"geometry":{"type":"Point","coordinates":[30.315769,59.91258]}},{"type":"Feature","properties":{"name":"Бизнес-центр «Сенатор Московский 60»","address":"Санкт-Петербург, Московский пр-кт., д.60","class":"A"},"geometry":{"type":"Point","coordinates":[30.319695,59.909206]}},{"type":"Feature","properties":{"name":"Бизнес-центр «Сенатор Садовая 10»","address":"Санкт-Петербург, Садовая ул., д.10","class":"A"},"geometry":{"type":"Point","coordinates":[30.336449,59.936751]}},{"type":"Feature","properties":{"name":"Бизнес-центр «Gregorys Palace»","address":"Санкт-Петербург, Выборгская наб., д.55, к.2","class":"A"},"geometry":{"type":"Point","coordinates":[30.327645,59.978399]}},{"type":"Feature","properties":{"name":"Бизнес-центр «Выборгская 49»","address":"Санкт-Петербург, Выборгская наб., д.49","class":"B"},"geometry":{"type":"Point","coordinates":[30.331364,59.975666]}},{"type":"Feature","properties":{"name":"Бизнес-центр «Выборгская Застава»","address":"Санкт-Петербург, Сампсониевский Б. пр-кт., д.68","class":"B"},"geometry":{"type":"Point","coordinates":[30.330124,59.979322]}},{"type":"Feature","properties":{"name":"Бизнес-центр «Сенатор Чайковского 1»","address":"Санкт-Петербург, Чайковского ул., д.1","class":"A"},"geometry":{"type":"Point","coordinates":[30.340527,59.946432]}},{"type":"Feature","properties":{"name":"Бизнес-центр «Жуковского 3»","address":"Санкт-Петербург, Жуковского ул., д.3, Литера А","class":"C"},"geometry":{"type":"Point","coordinates":[30.350238,59.935791]}},{"type":"Feature","properties":{"name":"Деловой центр «Bolloev Center»","address":"Санкт-Петербург, Гривцова пер., д.4, Строение А","class":"A"},"geometry":{"type":"Point","coordinates":[30.313119,59.931513]}},{"type":"Feature","properties":{"name":"Бизнес-центр «Петергофский»","address":"Санкт-Петербург, Старо-Петергофский пр-кт., д.19","class":"B+"},"geometry":{"type":"Point","coordinates":[30.276055,59.911782]}},{"type":"Feature","properties":{"name":"Бизнес-центр «Мойка 37»","address":"Санкт-Петербург, Реки Мойки наб., д.37","class":"C"},"geometry":{"type":"Point","coordinates":[30.318976,59.940533]}},{"type":"Feature","properties":{"name":"Бизнес-центр «Рижский 58»","address":"Санкт-Петербург, Рижский пр-кт., д.58","class":"C"},"geometry":{"type":"Point","coordinates":[30.274995,59.913054]}},{"type":"Feature","properties":{"name":"Бизнес-центр «Лиговский 114»","address":"Санкт-Петербург, Лиговский пр-кт., д.4, Литера А","class":"C"},"geometry":{"type":"Point","coordinates":[30.366309,59.937188]}},{"type":"Feature","properties":{"name":"Бизнес-центр «Союз Печатников 25 А»","address":"Санкт-Петербург, Союза Печатников ул., д.25, Литера А","class":"C"},"geometry":{"type":"Point","coordinates":[30.286655,59.922702]}},{"type":"Feature","properties":{"name":"Деловой центр «Московское шоссе 23»","address":"Санкт-Петербург, Московское ш., д.23, к.2-3","class":"C"},"geometry":{"type":"Point","coordinates":[30.353112,59.819531]}},{"type":"Feature","properties":{"name":"Бизнес-центр «Лиговь»","address":"Санкт-Петербург, Лиговский пр-кт., д.153","class":"B+"},"geometry":{"type":"Point","coordinates":[30.349133,59.914615]}},{"type":"Feature","properties":{"name":"Бизнес-центр «Office l27»","address":"Санкт-Петербург, Львовская ул., д.27","class":"A"},"geometry":{"type":"Point","coordinates":[30.420351,59.971204]}},{"type":"Feature","properties":{"name":"Бизнес-центр «Ponomarev Center»","address":"Санкт-Петербург, Малая Морская ул., д.18, Строение 1","class":"A"},"geometry":{"type":"Point","coordinates":[30.31029,59.934231]}},{"type":"Feature","properties":{"name":"Бизнес-центр «Итальянская 5»","address":"Санкт-Петербург, Итальянская ул., д.5","class":"B+"},"geometry":{"type":"Point","coordinates":[30.329738,59.936674]}},{"type":"Feature","properties":{"name":"Бизнес-центр «Сенатор Малый проспект 87»","address":"Санкт-Петербург, Малый П.С. пр-кт., д.87","class":"A"},"geometry":{"type":"Point","coordinates":[30.308035,59.966867]}},{"type":"Feature","properties":{"name":"Бизнес-центр «Сенатор Чапаева 15»","address":"Санкт-Петербург, Чапаева ул., д.15","class":"A"},"geometry":{"type":"Point","coordinates":[30.331337,59.961179]}},{"type":"Feature","properties":{"name":"Бизнес-центр «Сенатор Большая Пушкарская 22»","address":"Санкт-Петербург, Большая Пушкарская ул., д.22","class":"A"},"geometry":{"type":"Point","coordinates":[30.302241,59.958296]}},{"type":"Feature","properties":{"name":"Бизнес-центр «Сенатор Чапаева 15/1»","address":"Санкт-Петербург, Чапаева ул., д.15, к.1","class":"B+"},"geometry":{"type":"Point","coordinates":[30.330978,59.961863]}},{"type":"Feature","properties":{"name":"Бизнес-центр «Сенатор Чапаева 15/2»","address":"Санкт-Петербург, Чапаева ул., д.15, к.2","class":"B"},"geometry":{"type":"Point","coordinates":[30.330978,59.961863]}},{"type":"Feature","properties":{"name":"Бизнес-центр «Сенатор Попова 37»","address":"Санкт-Петербург, Профессора Попова ул., д.37","class":"A"},"geometry":{"type":"Point","coordinates":[30.29774,59.971528]}},{"type":"Feature","properties":{"name":"Бизнес-центр «Сенатор Кропоткина 1»","address":"Санкт-Петербург, Кропоткина ул., д.1","class":"B"},"geometry":{"type":"Point","coordinates":[30.311655,59.959228]}},{"type":"Feature","properties":{"name":"Бизнес-центр «Сенатор Кропоткина улица 1»","address":"Санкт-Петербург, Кропоткина ул., д.1","class":"A"},"geometry":{"type":"Point","coordinates":[30.311655,59.959228]}},{"type":"Feature","properties":{"name":"Бизнес-центр «Сенатор Пр.Попова 37»","address":"Санкт-Петербург, Профессора Попова ул., д.37","class":"A"},"geometry":{"type":"Point","coordinates":[30.29774,59.971528]}},{"type":"Feature","properties":{"name":"Бизнес-центр «Сенатор Профессора Попова 37»","address":"Санкт-Петербург, Профессора Попова ул., д.37","class":"B"},"geometry":{"type":"Point","coordinates":[30.29774,59.971528]}},{"type":"Feature","properties":{"name":"Бизнес-центр «Сенатор 18-я линия»","address":"Санкт-Петербург, 18-я В.О. линия., д.29","class":"B+"},"geometry":{"type":"Point","coordinates":[30.266128,59.937513]}},{"type":"Feature","properties":{"name":"Бизнес-центр «Сенатор 18-я линия 29»","address":"Санкт-Петербург, 18-я В.О. линия., д.29","class":"A"},"geometry":{"type":"Point","coordinates":[30.266128,59.937513]}},{"type":"Feature","properties":{"name":"Бизнес-центр «Сенатор 7-я линия»","address":"Санкт-Петербург, 7-я В.О. линия., д.76","class":"B"},"geometry":{"type":"Point","coordinates":[30.272722,59.947775]}},{"type":"Feature","properties":{"name":"Бизнес-центр «Льва Толстого 7»","address":"Санкт-Петербург, Льва Толстого ул., д.7","class":"B"},"geometry":{"type":"Point","coordinates":[30.314871,59.965268]}},{"type":"Feature","properties":{"name":"Бизнес-центр «Антарес»","address":"Санкт-Петербург, Савушкина ул., д.83, к.3, Литера А","class":"B+"},"geometry":{"type":"Point","coordinates":[30.250013,59.985003]}},{"type":"Feature","properties":{"name":"Бизнес-центр «Сенатор Большой проспект 80»","address":"Санкт-Петербург, Большой В.О. пр-кт., д.80","class":"B"},"geometry":{"type":"Point","coordinates":[30.254217,59.930016]}},{"type":"Feature","properties":{"name":"Бизнес-центр «Сенатор Большой пр. 80»","address":"Санкт-Петербург, Большой В.О. пр-кт., д.80","class":"A"},"geometry":{"type":"Point","coordinates":[30.254217,59.930016]}},{"type":"Feature","properties":{"name":"Бизнес-центр «Сенатор 17-я линия 22»","address":"Санкт-Петербург, 17-я В.О. линия., д.22","class":"A"},"geometry":{"type":"Point","coordinates":[30.266757,59.938284]}},{"type":"Feature","properties":{"name":"Бизнес-центр «ПТИлитпром»","address":"Санкт-Петербург, Кондратьевский пр-кт., д.2, к.4","class":"C"},"geometry":{"type":"Point","coordinates":[30.373306,59.960075]}},{"type":"Feature","properties":{"name":"Бизнес-центр «АкадЭмия»","address":"Санкт-Петербург, Уральская ул., д.1, к.2, Литера А","class":"C"},"geometry":{"type":"Point","coordinates":[30.269758,59.949627]}},{"type":"Feature","properties":{"name":"Бизнес-центр «Дом Мертенса»","address":"Санкт-Петербург, Невский пр-кт., д.21","class":"A"},"geometry":{"type":"Point","coordinates":[30.322111,59.935615]}},{"type":"Feature","properties":{"name":"Бизнес-центр «Исторический Деловой Центр 1864»","address":"Санкт-Петербург, Синопская наб., д.50, Литера А","class":"B+"},"geometry":{"type":"Point","coordinates":[30.391758,59.934245]}},{"type":"Feature","properties":{"name":"Бизнес-центр «Институтский 11»","address":"Санкт-Петербург, Институтский пр-кт., д.11","class":"B"},"geometry":{"type":"Point","coordinates":[30.348028,59.999228]}},{"type":"Feature","properties":{"name":"Бизнес-центр «Курчатова 10»","address":"Санкт-Петербург, Курчатова ул., д.10, к.51","class":"C"},"geometry":{"type":"Point","coordinates":[30.364162,60.010137]}},{"type":"Feature","properties":{"name":"Бизнес-центр «Строгановский»","address":"Санкт-Петербург, Невский пр-кт., д.19, Литера А","class":"B"},"geometry":{"type":"Point","coordinates":[30.321608,59.935656]}},{"type":"Feature","properties":{"name":"Бизнес-центр «Орлов»","address":"Санкт-Петербург, Парадная ул., д.7, Литера А","class":"A"},"geometry":{"type":"Point","coordinates":[30.37045,59.941335]}},{"type":"Feature","properties":{"name":"Бизнес-центр «Гильдия»","address":"Санкт-Петербург, Шпалерная ул., д.2/4, Литера А","class":"B+"},"geometry":{"type":"Point","coordinates":[30.342467,59.948244]}},{"type":"Feature","properties":{"name":"Бизнес-центр «АвтоВелоМото»","address":"Санкт-Петербург, Маршала Блюхера пр-кт., д.12","class":"A"},"geometry":{"type":"Point","coordinates":[30.37531,59.98228]}},{"type":"Feature","properties":{"name":"Бизнес-центр «Смольный»","address":"Санкт-Петербург, Смольного ул., д.8, Литера А","class":"A"},"geometry":{"type":"Point","coordinates":[30.398037,59.951894]}},{"type":"Feature","properties":{"name":"Бизнес-центр «Невский 68»","address":"Санкт-Петербург, Невский пр-кт., д.68","class":"A"},"geometry":{"type":"Point","coordinates":[30.344911,59.933388]}},{"type":"Feature","properties":{"name":"Бизнес-центр «Стелс»","address":"Санкт-Петербург, Боровая ул., д.32, Литера А","class":"B+"},"geometry":{"type":"Point","coordinates":[30.346357,59.917962]}},{"type":"Feature","properties":{"name":"Бизнес-центр «Невская Ратуша»","address":"Санкт-Петербург, Дегтярный пер., д.11, Литера Б","class":"A"},"geometry":{"type":"Point","coordinates":[30.384499,59.938559]}},{"type":"Feature","properties":{"name":"Бизнес-центр «Богатырский 35»","address":"Санкт-Петербург, Богатырский пр-кт., д.35","class":"B+"},"geometry":{"type":"Point","coordinates":[30.241928,60.003858]}},{"type":"Feature","properties":{"name":"Бизнес-центр «Компрессор»","address":"Санкт-Петербург, Выборгская наб., д.49","class":"B"},"geometry":{"type":"Point","coordinates":[30.331364,59.975666]}},{"type":"Feature","properties":{"name":"Бизнес-центр «Сова»","address":"Санкт-Петербург, Маршала Тухачевского ул., д.22","class":"B+"},"geometry":{"type":"Point","coordinates":[30.416982,59.972091]}},{"type":"Feature","properties":{"name":"Бизнес-центр «Атриум на Невском»","address":"Санкт-Петербург, Невский пр-кт., д.25","class":"A"},"geometry":{"type":"Point","coordinates":[30.323279,59.935457]}},{"type":"Feature","properties":{"name":"Бизнес-центр «Особняк Нейдгарта»","address":"Санкт-Петербург, Чайковского ул., д.44","class":"B"},"geometry":{"type":"Point","coordinates":[30.361413,59.946676]}},{"type":"Feature","properties":{"name":"Бизнес-центр «Кочубей Клуб»","address":"Санкт-Петербург, Фурштатская ул., д.24","class":"A"},"geometry":{"type":"Point","coordinates":[30.355178,59.945472]}},{"type":"Feature","properties":{"name":"Бизнес-центр «Kellermann center»","address":"Санкт-Петербург, 10-я Красноармейская ул., д.22, Литера А, Б","class":"A"},"geometry":{"type":"Point","coordinates":[30.295117,59.912017]}},{"type":"Feature","properties":{"name":"Бизнес-центр «Александр Невский»","address":"Санкт-Петербург, Малоохтинский пр-кт., д.61, к.8, Литера А","class":"B"},"geometry":{"type":"Point","coordinates":[30.399834,59.929646]}},{"type":"Feature","properties":{"name":"Бизнес-центр «Взлет»","address":"Санкт-Петербург, Мастерская ул., д.9","class":"C"},"geometry":{"type":"Point","coordinates":[30.28829,59.922467]}},{"type":"Feature","properties":{"name":"Бизнес-центр «Измайловский»","address":"Санкт-Петербург, Измайловский пр-кт., д.4, Литера А","class":"C"},"geometry":{"type":"Point","coordinates":[30.30799,59.915815]}},{"type":"Feature","properties":{"name":"Бизнес-центр «Английская 70»","address":"Санкт-Петербург, Английская наб., д.70","class":"B"},"geometry":{"type":"Point","coordinates":[30.28422,59.931513]}},{"type":"Feature","properties":{"name":"Особняк «Невский 15 (Дом купцов Елисеевых )»","address":"Санкт-Петербург, Невский пр-кт., д.15","class":"A"},"geometry":{"type":"Point","coordinates":[30.318204,59.936138]}},{"type":"Feature","properties":{"name":"Офисно-складской комплекс «Пулково»","address":"Санкт-Петербург, Пулковское ш., д.56, к.4, Литера А","class":"A"},"geometry":{"type":"Point","coordinates":[30.336152,59.802006]}},{"type":"Feature","properties":{"name":"Бизнес-центр «Троицкая 1»","address":"Санкт-Петербург, Троицкая П.С. пл., д.1","class":"B"},"geometry":{"type":"Point","coordinates":[30.327843,59.952921]}},{"type":"Feature","properties":{"name":"Бизнес-центр «Греческий»","address":"Санкт-Петербург, Лиговский пр-кт., д.13-15","class":"A"},"geometry":{"type":"Point","coordinates":[30.364072,59.936665]}},{"type":"Feature","properties":{"name":"Бизнес-центр «Елизаветинский, 1 очередь»","address":"Санкт-Петербург, 13-я В.О. линия., д.14, Литера Б","class":"B+"},"geometry":{"type":"Point","coordinates":[30.276118,59.936106]}},{"type":"Feature","properties":{"name":"Бизнес-центр «Лиговский 6»","address":"Санкт-Петербург, Лиговский пр-кт., д.6, к.2, Литера А","class":"A"},"geometry":{"type":"Point","coordinates":[30.364943,59.936593]}},{"type":"Feature","properties":{"name":"Бизнес-центр «Московский 94»","address":"Санкт-Петербург, Московский пр-кт., д.94, Литера А","class":"B+"},"geometry":{"type":"Point","coordinates":[30.319515,59.901739]}},{"type":"Feature","properties":{"name":"Бизнес-центр «Белоостровская 6»","address":"Санкт-Петербург, Белоостровская ул., д.6, Литера А","class":"B+"},"geometry":{"type":"Point","coordinates":[30.32813,59.984962]}},{"type":"Feature","properties":{"name":"Бизнес-центр «Галерный Двор»","address":"Санкт-Петербург, Галерная ул., д.20-22","class":"C"},"geometry":{"type":"Point","coordinates":[30.29712,59.933983]}},{"type":"Feature","properties":{"name":"Технопарк «Нарвский на Швецова 38»","address":"Санкт-Петербург, Швецова ул., д.38","class":"C"},"geometry":{"type":"Point","coordinates":[30.292144,59.897921]}},{"type":"Feature","properties":{"name":"Технопарк «Благодатная»","address":"Санкт-Петербург, Благодатная ул., д.50","class":"C"},"geometry":{"type":"Point","coordinates":[30.340114,59.87691]}},{"type":"Feature","properties":{"name":"Офисно-складской комплекс «Тореза 68»","address":"Санкт-Петербург, Тореза пр-кт., д.68","class":"C"},"geometry":{"type":"Point","coordinates":[30.344228,60.011437]}},{"type":"Feature","properties":{"name":"Бизнес-центр «Премьер Лига (III очередь)»","address":"Санкт-Петербург, Лиговский пр-кт., д.266, Литера О","class":"A"},"geometry":{"type":"Point","coordinates":[30.328867,59.893787]}}]}